Time,header.seq,header.stamp.secs,header.stamp.nsecs,header.frame_id,geo.latitude,geo.longitude,geo.altitude,position.x,position.y,position.z,orientation.x,orientation.y,orientation.z,orientation.w,approach.x,approach.y,approach.z
1654043858.8541253,0,1654043858,853783497,,33.7531023,-80.6446276,-3.208192709060917,33.519290924072266,-5.173783779144287,-0.7667182683944702,0.7994235628275816,0.6007678273396361,4.895057536898853e-17,3.678641983910976e-17,0.0,0.0,-0.0
1654043860.854694,1,1654043860,854382477,,33.7531023,-80.6446276,-3.208192709060917,33.519290924072266,-5.173783779144287,-0.7667182683944702,0.7994235628275816,0.6007678273396361,4.895057536898853e-17,3.678641983910976e-17,0.0,0.0,-0.0
1654043862.852399,2,1654043862,852082847,,33.7531023,-80.6446276,-3.208192709060917,33.519290924072266,-5.173783779144287,-0.7667182683944702,0.7994235628275816,0.6007678273396361,4.895057536898853e-17,3.678641983910976e-17,0.0,0.0,-0.0
1654043864.8530805,3,1654043864,852756845,,33.7531023,-80.6446276,-3.208192709060917,33.519290924072266,-5.173783779144287,-0.7667182683944702,0.7994235628275816,0.6007678273396361,4.895057536898853e-17,3.678641983910976e-17,0.0,0.0,-0.0
1654043866.8548813,4,1654043866,854460215,,33.7531023,-80.6446276,-3.208192709060917,33.519290924072266,-5.173783779144287,-0.7667182683944702,0.7994235628275816,0.6007678273396361,4.895057536898853e-17,3.678641983910976e-17,0.0,0.0,-0.0
1654043868.8546722,5,1654043868,854168787,,33.7531023,-80.6446276,-3.208192709060917,33.519290924072266,-5.173783779144287,-0.7667182683944702,0.7994235628275816,0.6007678273396361,4.895057536898853e-17,3.678641983910976e-17,0.0,0.0,-0.0
1654043870.852155,6,1654043870,851825342,,33.7531023,-80.6446276,-3.208192709060917,33.519290924072266,-5.173783779144287,-0.7667182683944702,0.7994235628275816,0.6007678273396361,4.895057536898853e-17,3.678641983910976e-17,0.0,0.0,-0.0
1654043872.853829,7,1654043872,853476174,,33.753101,-80.644623,-3.883197146301139,33.94560623168945,-5.322357177734375,-1.4413509368896484,0.7901342920486593,0.612933789116821,4.838177158269751e-17,3.7531370146558686e-17,0.0,0.0,-0.0
1654043874.8525033,8,1654043874,852167284,,33.753101,-80.644623,-3.883197146301139,33.94560623168945,-5.322357177734375,-1.4413509368896484,0.7901342920486593,0.612933789116821,4.838177158269751e-17,3.7531370146558686e-17,0.0,0.0,-0.0
1654043876.8535354,9,1654043876,853093134,,33.753101,-80.644623,-3.883197146301139,33.94560623168945,-5.322357177734375,-1.4413509368896484,0.7901342920486593,0.612933789116821,4.838177158269751e-17,3.7531370146558686e-17,0.0,0.0,-0.0
1654043878.8548577,10,1654043878,854507911,,33.753101,-80.644623,-3.883197146301139,33.94560623168945,-5.322357177734375,-1.4413509368896484,0.7901342920486593,0.612933789116821,4.838177158269751e-17,3.7531370146558686e-17,0.0,0.0,-0.0
1654043880.8525877,11,1654043880,852223614,,33.753101,-80.644623,-3.883197146301139,33.94560623168945,-5.322357177734375,-1.4413509368896484,0.7901342920486593,0.612933789116821,4.838177158269751e-17,3.7531370146558686e-17,0.0,0.0,-0.0
1654043882.8537598,12,1654043882,852999298,,33.753101,-80.644623,-3.883197146301139,33.94560623168945,-5.322357177734375,-1.4413509368896484,0.7901342920486593,0.612933789116821,4.838177158269751e-17,3.7531370146558686e-17,0.0,0.0,-0.0
1654043884.8537045,13,1654043884,852921130,,33.753101,-80.644623,-3.883197146301139,33.94560623168945,-5.322357177734375,-1.4413509368896484,0.7901342920486593,0.612933789116821,4.838177158269751e-17,3.7531370146558686e-17,0.0,0.0,-0.0
1654043886.8527749,14,1654043886,852390314,,33.753101,-80.644623,-3.883197146301139,33.94560623168945,-5.322357177734375,-1.4413509368896484,0.7901342920486593,0.612933789116821,4.838177158269751e-17,3.7531370146558686e-17,0.0,0.0,-0.0
1654043888.8545442,15,1654043888,853909794,,33.753101,-80.644623,-3.883197146301139,33.94560623168945,-5.322357177734375,-1.4413509368896484,0.7901342920486593,0.612933789116821,4.838177158269751e-17,3.7531370146558686e-17,0.0,0.0,-0.0
1654043890.8560517,16,1654043890,855432052,,33.753101,-80.644623,-3.883197146301139,33.94560623168945,-5.322357177734375,-1.4413509368896484,0.7901342920486593,0.612933789116821,4.838177158269751e-17,3.7531370146558686e-17,0.0,0.0,-0.0
1654043892.8535233,17,1654043892,853227995,,33.753101,-80.644623,-3.883197146301139,33.94560623168945,-5.322357177734375,-1.4413509368896484,0.7901342920486593,0.612933789116821,4.838177158269751e-17,3.7531370146558686e-17,0.0,0.0,-0.0
1654043894.854239,18,1654043894,853946920,,33.753101,-80.644623,-3.883197146301139,33.94560623168945,-5.322357177734375,-1.4413509368896484,0.7901342920486593,0.612933789116821,4.838177158269751e-17,3.7531370146558686e-17,0.0,0.0,-0.0
1654043896.8569422,19,1654043896,856653234,,33.7531043,-80.6446202,-4.0211973051770045,34.204532623291016,-4.948432922363281,-1.5796277523040771,0.7860646186982275,0.6181442933627453,4.8132575960588446e-17,3.785042151389444e-17,0.0,0.0,-0.0
1654043898.8525786,20,1654043898,852269547,,33.7531043,-80.6446202,-4.0211973051770045,34.204532623291016,-4.948432922363281,-1.5796277523040771,0.7860646186982275,0.6181442933627453,4.8132575960588446e-17,3.785042151389444e-17,0.0,0.0,-0.0
1654043900.8543017,21,1654043900,853952361,,33.7531043,-80.6446202,-4.0211973051770045,34.204532623291016,-4.948432922363281,-1.5796277523040771,0.7860646186982275,0.6181442933627453,4.8132575960588446e-17,3.785042151389444e-17,0.0,0.0,-0.0
1654043902.8531415,22,1654043902,852660508,,33.7531043,-80.6446202,-4.0211973051770045,34.204532623291016,-4.948432922363281,-1.5796277523040771,0.7860646186982275,0.6181442933627453,4.8132575960588446e-17,3.785042151389444e-17,0.0,0.0,-0.0
1654043904.854801,23,1654043904,854329636,,33.7531043,-80.6446202,-4.0211973051770045,34.204532623291016,-4.948432922363281,-1.5796277523040771,0.7860646186982275,0.6181442933627453,4.8132575960588446e-17,3.785042151389444e-17,0.0,0.0,-0.0
1654043906.8575716,24,1654043906,857075857,,33.7531043,-80.6446202,-4.0211973051770045,34.204532623291016,-4.948432922363281,-1.5796277523040771,0.7860646186982275,0.6181442933627453,4.8132575960588446e-17,3.785042151389444e-17,0.0,0.0,-0.0
1654043908.8532434,25,1654043908,852745467,,33.7531043,-80.6446202,-4.0211973051770045,34.204532623291016,-4.948432922363281,-1.5796277523040771,0.7860646186982275,0.6181442933627453,4.8132575960588446e-17,3.785042151389444e-17,0.0,0.0,-0.0
1654043910.8538148,26,1654043910,853349448,,33.7531043,-80.6446202,-4.0211973051770045,34.204532623291016,-4.948432922363281,-1.5796277523040771,0.7860646186982275,0.6181442933627453,4.8132575960588446e-17,3.785042151389444e-17,0.0,0.0,-0.0
1654043912.8555222,27,1654043912,855009057,,33.7531043,-80.6446202,-4.0211973051770045,34.204532623291016,-4.948432922363281,-1.5796277523040771,0.7860646186982275,0.6181442933627453,4.8132575960588446e-17,3.785042151389444e-17,0.0,0.0,-0.0
1654043914.8551326,28,1654043914,854712297,,33.7531043,-80.6446202,-4.0211973051770045,34.204532623291016,-4.948432922363281,-1.5796277523040771,0.7860646186982275,0.6181442933627453,4.8132575960588446e-17,3.785042151389444e-17,0.0,0.0,-0.0
1654043916.8538597,29,1654043916,853409314,,33.7531043,-80.6446202,-4.0211973051770045,34.204532623291016,-4.948432922363281,-1.5796277523040771,0.7860646186982275,0.6181442933627453,4.8132575960588446e-17,3.785042151389444e-17,0.0,0.0,-0.0
1654043918.8534462,30,1654043918,853132146,,33.7531043,-80.6446202,-4.0211973051770045,34.204532623291016,-4.948432922363281,-1.5796277523040771,0.7860646186982275,0.6181442933627453,4.8132575960588446e-17,3.785042151389444e-17,0.0,0.0,-0.0
1654043920.8550355,31,1654043920,854725460,,33.7531043,-80.6446202,-4.0211973051770045,34.204532623291016,-4.948432922363281,-1.5796277523040771,0.7860646186982275,0.6181442933627453,4.8132575960588446e-17,3.785042151389444e-17,0.0,0.0,-0.0
1654043922.8539171,32,1654043922,853432533,,33.7531043,-80.6446202,-4.0211973051770045,34.204532623291016,-4.948432922363281,-1.5796277523040771,0.7860646186982275,0.6181442933627453,4.8132575960588446e-17,3.785042151389444e-17,0.0,0.0,-0.0
1654043924.8535683,33,1654043924,853141439,,33.7531043,-80.6446202,-4.0211973051770045,34.204532623291016,-4.948432922363281,-1.5796277523040771,0.7860646186982275,0.6181442933627453,4.8132575960588446e-17,3.785042151389444e-17,0.0,0.0,-0.0
1654043926.854271,34,1654043926,853786031,,33.7531043,-80.6446202,-4.0211973051770045,34.204532623291016,-4.948432922363281,-1.5796277523040771,0.7860646186982275,0.6181442933627453,4.8132575960588446e-17,3.785042151389444e-17,0.0,0.0,-0.0
1654043928.8548484,35,1654043928,854425733,,33.7531043,-80.6446202,-4.0211973051770045,34.204532623291016,-4.948432922363281,-1.5796277523040771,0.7860646186982275,0.6181442933627453,4.8132575960588446e-17,3.785042151389444e-17,0.0,0.0,-0.0
1654043930.8536367,36,1654043930,853217547,,33.7531043,-80.6446202,-4.0211973051770045,34.204532623291016,-4.948432922363281,-1.5796277523040771,0.7860646186982275,0.6181442933627453,4.8132575960588446e-17,3.785042151389444e-17,0.0,0.0,-0.0
1654043932.8552542,37,1654043932,854807546,,33.7531043,-80.6446202,-4.0211973051770045,34.204532623291016,-4.948432922363281,-1.5796277523040771,0.7860646186982275,0.6181442933627453,4.8132575960588446e-17,3.785042151389444e-17,0.0,0.0,-0.0
1654043934.8549414,38,1654043934,854475396,,33.7531043,-80.6446202,-4.0211973051770045,34.204532623291016,-4.948432922363281,-1.5796277523040771,0.7860646186982275,0.6181442933627453,4.8132575960588446e-17,3.785042151389444e-17,0.0,0.0,-0.0
1654043936.85361,39,1654043936,853184839,,33.7531043,-80.6446202,-4.0211973051770045,34.204532623291016,-4.948432922363281,-1.5796277523040771,0.7860646186982275,0.6181442933627453,4.8132575960588446e-17,3.785042151389444e-17,0.0,0.0,-0.0
1654043938.8574758,40,1654043938,857027542,,33.7531043,-80.6446202,-4.0211973051770045,34.204532623291016,-4.948432922363281,-1.5796277523040771,0.7860646186982275,0.6181442933627453,4.8132575960588446e-17,3.785042151389444e-17,0.0,0.0,-0.0
1654043940.8547728,41,1654043940,854472707,,33.7531032,-80.6446249,-4.039194280222265,33.77171325683594,-5.076300621032715,-1.5977617502212524,0.7880995791798109,0.615547768271603,4.8257181352596565e-17,3.7691430206805775e-17,0.0,0.0,-0.0
1654043942.8555639,42,1654043942,855152299,,33.7531032,-80.6446249,-4.039194280222265,33.77171325683594,-5.076300621032715,-1.5977617502212524,0.7880995791798109,0.615547768271603,4.8257181352596565e-17,3.7691430206805775e-17,0.0,0.0,-0.0
1654043944.8553338,43,1654043944,854861835,,33.7531032,-80.6446249,-4.039194280222265,33.77171325683594,-5.076300621032715,-1.5977617502212524,0.7880995791798109,0.615547768271603,4.8257181352596565e-17,3.7691430206805775e-17,0.0,0.0,-0.0
1654043946.8540533,44,1654043946,853581296,,33.7531032,-80.6446249,-4.039194280222265,33.77171325683594,-5.076300621032715,-1.5977617502212524,0.7880995791798109,0.615547768271603,4.8257181352596565e-17,3.7691430206805775e-17,0.0,0.0,-0.0
1654043948.8539953,45,1654043948,853388425,,33.7531032,-80.6446249,-4.039194280222265,33.77171325683594,-5.076300621032715,-1.5977617502212524,0.7880995791798109,0.615547768271603,4.8257181352596565e-17,3.7691430206805775e-17,0.0,0.0,-0.0
1654043950.8543122,46,1654043950,853907739,,33.7531049,-80.6446294,-4.081189673333501,33.3551139831543,-4.891708850860596,-1.6392436027526855,0.7888190100788236,0.6146255267375558,4.830123378998075e-17,3.763495919967019e-17,0.0,0.0,-0.0
1654043952.855007,47,1654043952,854562460,,33.7531049,-80.6446294,-4.081189673333501,33.3551139831543,-4.891708850860596,-1.6392436027526855,0.7888190100788236,0.6146255267375558,4.830123378998075e-17,3.763495919967019e-17,0.0,0.0,-0.0
1654043954.8556726,48,1654043954,855245014,,33.7531049,-80.6446294,-4.081189673333501,33.3551139831543,-4.891708850860596,-1.6392436027526855,0.7888190100788236,0.6146255267375558,4.830123378998075e-17,3.763495919967019e-17,0.0,0.0,-0.0
1654043956.8552802,49,1654043956,854887494,,33.7531049,-80.6446294,-4.081189673333501,33.3551139831543,-4.891708850860596,-1.6392436027526855,0.7888190100788236,0.6146255267375558,4.830123378998075e-17,3.763495919967019e-17,0.0,0.0,-0.0
1654043958.8551283,50,1654043958,854691660,,33.7531049,-80.6446294,-4.081189673333501,33.3551139831543,-4.891708850860596,-1.6392436027526855,0.7888190100788236,0.6146255267375558,4.830123378998075e-17,3.763495919967019e-17,0.0,0.0,-0.0
1654043960.8577447,51,1654043960,857348788,,33.7531049,-80.6446294,-4.081189673333501,33.3551139831543,-4.891708850860596,-1.6392436027526855,0.7888190100788236,0.6146255267375558,4.830123378998075e-17,3.763495919967019e-17,0.0,0.0,-0.0
1654043962.8553927,52,1654043962,854930917,,33.7531049,-80.6446294,-4.081189673333501,33.3551139831543,-4.891708850860596,-1.6392436027526855,0.7888190100788236,0.6146255267375558,4.830123378998075e-17,3.763495919967019e-17,0.0,0.0,-0.0
1654043964.8561065,53,1654043964,855620489,,33.7531049,-80.6446294,-4.081189673333501,33.3551139831543,-4.891708850860596,-1.6392436027526855,0.7888190100788236,0.6146255267375558,4.830123378998075e-17,3.763495919967019e-17,0.0,0.0,-0.0
1654043966.857869,54,1654043966,857483914,,33.7531049,-80.6446294,-4.081189673333501,33.3551139831543,-4.891708850860596,-1.6392436027526855,0.7888190100788236,0.6146255267375558,4.830123378998075e-17,3.763495919967019e-17,0.0,0.0,-0.0
1654043968.8554418,55,1654043968,854971802,,33.7531086,-80.6446311,-4.090186033000197,33.194366455078125,-4.4723920822143555,-1.6488646268844604,0.7893047841180482,0.6140015953289126,4.8330978871093006e-17,3.759675441954608e-17,0.0,0.0,-0.0
1654043970.854104,56,1654043970,853667745,,33.7531086,-80.6446311,-4.090186033000197,33.194366455078125,-4.4723920822143555,-1.6488646268844604,0.7893047841180482,0.6140015953289126,4.8330978871093006e-17,3.759675441954608e-17,0.0,0.0,-0.0
1654043972.8548284,57,1654043972,854382540,,33.7531086,-80.6446311,-4.090186033000197,33.194366455078125,-4.4723920822143555,-1.6488646268844604,0.7893047841180482,0.6140015953289126,4.8330978871093006e-17,3.759675441954608e-17,0.0,0.0,-0.0
1654043974.8554742,58,1654043974,855010909,,33.7531086,-80.6446311,-4.090186033000197,33.194366455078125,-4.4723920822143555,-1.6488646268844604,0.7893047841180482,0.6140015953289126,4.8330978871093006e-17,3.759675441954608e-17,0.0,0.0,-0.0
1654043976.858449,59,1654043976,857746223,,33.7531086,-80.6446311,-4.090186033000197,33.194366455078125,-4.4723920822143555,-1.6488646268844604,0.7893047841180482,0.6140015953289126,4.8330978871093006e-17,3.759675441954608e-17,0.0,0.0,-0.0
1654043978.8558857,60,1654043978,855348981,,33.7531086,-80.6446311,-4.090186033000197,33.194366455078125,-4.4723920822143555,-1.6488646268844604,0.7893047841180482,0.6140015953289126,4.8330978871093006e-17,3.759675441954608e-17,0.0,0.0,-0.0
1654043980.8544745,61,1654043980,854084276,,33.7531086,-80.6446311,-4.090186033000197,33.194366455078125,-4.4723920822143555,-1.6488646268844604,0.7893047841180482,0.6140015953289126,4.8330978871093006e-17,3.759675441954608e-17,0.0,0.0,-0.0
1654043982.8561552,62,1654043982,855711868,,33.7531086,-80.6446311,-4.090186033000197,33.194366455078125,-4.4723920822143555,-1.6488646268844604,0.7893047841180482,0.6140015953289126,4.8330978871093006e-17,3.759675441954608e-17,0.0,0.0,-0.0
1654043984.854916,63,1654043984,854474496,,33.7531086,-80.6446311,-4.090186033000197,33.194366455078125,-4.4723920822143555,-1.6488646268844604,0.7893047841180482,0.6140015953289126,4.8330978871093006e-17,3.759675441954608e-17,0.0,0.0,-0.0
1654043986.856491,64,1654043986,856067273,,33.7531086,-80.6446311,-4.090186033000197,33.194366455078125,-4.4723920822143555,-1.6488646268844604,0.7893047841180482,0.6140015953289126,4.8330978871093006e-17,3.759675441954608e-17,0.0,0.0,-0.0
1654043988.8550036,65,1654043988,854697327,,33.7531086,-80.6446311,-4.090186033000197,33.194366455078125,-4.4723920822143555,-1.6488646268844604,0.7893047841180482,0.6140015953289126,4.8330978871093006e-17,3.759675441954608e-17,0.0,0.0,-0.0
1654043990.8546638,66,1654043990,854366474,,33.7531086,-80.6446311,-4.090186033000197,33.194366455078125,-4.4723920822143555,-1.6488646268844604,0.7893047841180482,0.6140015953289126,4.8330978871093006e-17,3.759675441954608e-17,0.0,0.0,-0.0
1654043992.8553395,67,1654043992,855032769,,33.7531074,-80.6446359,-4.124182991303275,32.75343704223633,-4.604514122009277,-1.6824461221694946,0.7896135361251707,0.6136045035273112,4.8349884478955654e-17,3.757243955935613e-17,0.0,0.0,-0.0
1654043994.8562343,68,1654043994,855795064,,33.7531074,-80.6446359,-4.124182991303275,32.75343704223633,-4.604514122009277,-1.6824461221694946,0.7896135361251707,0.6136045035273112,4.8349884478955654e-17,3.757243955935613e-17,0.0,0.0,-0.0
1654043996.8549361,69,1654043996,854440248,,33.7531074,-80.6446359,-4.124182991303275,32.75343704223633,-4.604514122009277,-1.6824461221694946,0.7896135361251707,0.6136045035273112,4.8349884478955654e-17,3.757243955935613e-17,0.0,0.0,-0.0
1654043998.8566248,70,1654043998,856144858,,33.7531034,-80.6446352,-4.028186029020738,32.81329345703125,-5.051647186279297,-1.5865670442581177,0.7897457402522372,0.6134343672365847,4.8357979647007966e-17,3.7562021716163294e-17,0.0,0.0,-0.0
1654044000.8562837,71,1654044000,855828820,,33.7531034,-80.6446352,-4.028186029020738,32.81329345703125,-5.051647186279297,-1.5865670442581177,0.7897457402522372,0.6134343672365847,4.8357979647007966e-17,3.7562021716163294e-17,0.0,0.0,-0.0
1654044002.8559642,72,1654044002,855470763,,33.7531034,-80.6446352,-4.028186029020738,32.81329345703125,-5.051647186279297,-1.5865670442581177,0.7897457402522372,0.6134343672365847,4.8357979647007966e-17,3.7562021716163294e-17,0.0,0.0,-0.0
1654044004.8566403,73,1654044004,856181540,,33.7531034,-80.6446352,-4.028186029020738,32.81329345703125,-5.051647186279297,-1.5865670442581177,0.7897457402522372,0.6134343672365847,4.8357979647007966e-17,3.7562021716163294e-17,0.0,0.0,-0.0
1654044006.8562765,74,1654044006,855842927,,33.7531004,-80.6446319,-4.236190496810348,33.119991302490234,-5.383878231048584,-1.7944589853286743,0.7899723427832561,0.6131425213840712,4.8371855050222505e-17,3.7544151311707024e-17,0.0,0.0,-0.0
1654044008.8549376,75,1654044008,854487111,,33.7531004,-80.6446319,-4.236190496810348,33.119991302490234,-5.383878231048584,-1.7944589853286743,0.7899723427832561,0.6131425213840712,4.8371855050222505e-17,3.7544151311707024e-17,0.0,0.0,-0.0
1654044010.8565953,76,1654044010,856158573,,33.7531004,-80.6446319,-4.236190496810348,33.119991302490234,-5.383878231048584,-1.7944589853286743,0.7899723427832561,0.6131425213840712,4.8371855050222505e-17,3.7544151311707024e-17,0.0,0.0,-0.0
1654044012.8543236,77,1654044012,853886850,,33.7531004,-80.6446319,-4.236190496810348,33.119991302490234,-5.383878231048584,-1.7944589853286743,0.7899723427832561,0.6131425213840712,4.8371855050222505e-17,3.7544151311707024e-17,0.0,0.0,-0.0
1654044014.85499,78,1654044014,854523923,,33.7531004,-80.6446319,-4.236190496810348,33.119991302490234,-5.383878231048584,-1.7944589853286743,0.7899723427832561,0.6131425213840712,4.8371855050222505e-17,3.7544151311707024e-17,0.0,0.0,-0.0
1654044016.8546824,79,1654044016,854223051,,33.7531004,-80.6446319,-4.236190496810348,33.119991302490234,-5.383878231048584,-1.7944589853286743,0.7899723427832561,0.6131425213840712,4.8371855050222505e-17,3.7544151311707024e-17,0.0,0.0,-0.0
1654044018.8563821,80,1654044018,855892346,,33.7531004,-80.6446319,-4.236190496810348,33.119991302490234,-5.383878231048584,-1.7944589853286743,0.7899723427832561,0.6131425213840712,4.8371855050222505e-17,3.7544151311707024e-17,0.0,0.0,-0.0
1654044020.8560116,81,1654044020,855544993,,33.7531004,-80.6446319,-4.236190496810348,33.119991302490234,-5.383878231048584,-1.7944589853286743,0.7899723427832561,0.6131425213840712,4.8371855050222505e-17,3.7544151311707024e-17,0.0,0.0,-0.0
1654044022.8566856,82,1654044022,856233640,,33.7531004,-80.6446319,-4.236190496810348,33.119991302490234,-5.383878231048584,-1.7944589853286743,0.7899723427832561,0.6131425213840712,4.8371855050222505e-17,3.7544151311707024e-17,0.0,0.0,-0.0
1654044024.854486,83,1654044024,853970361,,33.7531004,-80.6446319,-4.236190496810348,33.119991302490234,-5.383878231048584,-1.7944589853286743,0.7899723427832561,0.6131425213840712,4.8371855050222505e-17,3.7544151311707024e-17,0.0,0.0,-0.0
1654044026.8573732,84,1654044026,856896730,,33.7531004,-80.6446319,-4.236190496810348,33.119991302490234,-5.383878231048584,-1.7944589853286743,0.7899723427832561,0.6131425213840712,4.8371855050222505e-17,3.7544151311707024e-17,0.0,0.0,-0.0
1654044028.8567128,85,1654044028,856276025,,33.7531004,-80.6446319,-4.236190496810348,33.119991302490234,-5.383878231048584,-1.7944589853286743,0.7899723427832561,0.6131425213840712,4.8371855050222505e-17,3.7544151311707024e-17,0.0,0.0,-0.0
1654044030.8544588,86,1654044030,854003135,,33.753104,-80.6446345,-4.230186208527623,32.87894821166992,-4.991297721862793,-1.7885464429855347,0.7894250027350693,0.6138469848835064,4.833834013831966e-17,3.758728726019201e-17,0.0,0.0,-0.0
1654044032.856095,87,1654044032,855624801,,33.753104,-80.6446345,-4.230186208527623,32.87894821166992,-4.991297721862793,-1.7885464429855347,0.7894250027350693,0.6138469848835064,4.833834013831966e-17,3.758728726019201e-17,0.0,0.0,-0.0
1654044034.8568423,88,1654044034,856337688,,33.753104,-80.6446345,-4.230186208527623,32.87894821166992,-4.991297721862793,-1.7885464429855347,0.7894250027350693,0.6138469848835064,4.833834013831966e-17,3.758728726019201e-17,0.0,0.0,-0.0
1654044036.8554611,89,1654044036,854971169,,33.753104,-80.6446345,-4.230186208527623,32.87894821166992,-4.991297721862793,-1.7885464429855347,0.7894250027350693,0.6138469848835064,4.833834013831966e-17,3.758728726019201e-17,0.0,0.0,-0.0
1654044038.8551204,90,1654044038,854707019,,33.753104,-80.6446345,-4.230186208527623,32.87894821166992,-4.991297721862793,-1.7885464429855347,0.7894250027350693,0.6138469848835064,4.833834013831966e-17,3.758728726019201e-17,0.0,0.0,-0.0
1654044040.8560069,91,1654044040,855397852,,33.753104,-80.6446345,-4.230186208527623,32.87894821166992,-4.991297721862793,-1.7885464429855347,0.7894250027350693,0.6138469848835064,4.833834013831966e-17,3.758728726019201e-17,0.0,0.0,-0.0
1654044042.8565187,92,1654044042,856017702,,33.753104,-80.6446345,-4.230186208527623,32.87894821166992,-4.991297721862793,-1.7885464429855347,0.7894250027350693,0.6138469848835064,4.833834013831966e-17,3.758728726019201e-17,0.0,0.0,-0.0
1654044044.8562667,93,1654044044,855758553,,33.753104,-80.6446345,-4.230186208527623,32.87894821166992,-4.991297721862793,-1.7885464429855347,0.7894250027350693,0.6138469848835064,4.833834013831966e-17,3.758728726019201e-17,0.0,0.0,-0.0
1654044046.8548284,94,1654044046,854373404,,33.753104,-80.6446345,-4.230186208527623,32.87894821166992,-4.991297721862793,-1.7885464429855347,0.7894250027350693,0.6138469848835064,4.833834013831966e-17,3.758728726019201e-17,0.0,0.0,-0.0
1654044048.8565907,95,1654044048,856051236,,33.753104,-80.6446345,-4.230186208527623,32.87894821166992,-4.991297721862793,-1.7885464429855347,0.7894250027350693,0.6138469848835064,4.833834013831966e-17,3.758728726019201e-17,0.0,0.0,-0.0
1654044050.8551722,96,1654044050,854715697,,33.753104,-80.6446345,-4.230186208527623,32.87894821166992,-4.991297721862793,-1.7885464429855347,0.7894250027350693,0.6138469848835064,4.833834013831966e-17,3.758728726019201e-17,0.0,0.0,-0.0
1654044052.8548913,97,1654044052,854462900,,33.753104,-80.6446345,-4.230186208527623,32.87894821166992,-4.991297721862793,-1.7885464429855347,0.7894250027350693,0.6138469848835064,4.833834013831966e-17,3.758728726019201e-17,0.0,0.0,-0.0
1654044054.856559,98,1654044054,856082547,,33.753104,-80.6446345,-4.230186208527623,32.87894821166992,-4.991297721862793,-1.7885464429855347,0.7894250027350693,0.6138469848835064,4.833834013831966e-17,3.758728726019201e-17,0.0,0.0,-0.0
1654044056.856101,99,1654044056,855754472,,33.753104,-80.6446345,-4.230186208527623,32.87894821166992,-4.991297721862793,-1.7885464429855347,0.7894250027350693,0.6138469848835064,4.833834013831966e-17,3.758728726019201e-17,0.0,0.0,-0.0
1654044058.8567362,100,1654044058,856404526,,33.753104,-80.6446345,-4.230186208527623,32.87894821166992,-4.991297721862793,-1.7885464429855347,0.7894250027350693,0.6138469848835064,4.833834013831966e-17,3.758728726019201e-17,0.0,0.0,-0.0
1654044060.8566706,101,1654044060,856121636,,33.753104,-80.6446345,-4.230186208527623,32.87894821166992,-4.991297721862793,-1.7885464429855347,0.7894250027350693,0.6138469848835064,4.833834013831966e-17,3.758728726019201e-17,0.0,0.0,-0.0
1654044062.8573034,102,1654044062,856790005,,33.753104,-80.6446345,-4.230186208527623,32.87894821166992,-4.991297721862793,-1.7885464429855347,0.7894250027350693,0.6138469848835064,4.833834013831966e-17,3.758728726019201e-17,0.0,0.0,-0.0
1654044064.8559213,103,1654044064,855500004,,33.753104,-80.6446345,-4.230186208527623,32.87894821166992,-4.991297721862793,-1.7885464429855347,0.7894250027350693,0.6138469848835064,4.833834013831966e-17,3.758728726019201e-17,0.0,0.0,-0.0
1654044066.8567188,104,1654044066,856187984,,33.753104,-80.6446345,-4.230186208527623,32.87894821166992,-4.991297721862793,-1.7885464429855347,0.7894250027350693,0.6138469848835064,4.833834013831966e-17,3.758728726019201e-17,0.0,0.0,-0.0
1654044068.859437,105,1654044068,859063742,,33.753104,-80.6446345,-4.230186208527623,32.87894821166992,-4.991297721862793,-1.7885464429855347,0.7894250027350693,0.6138469848835064,4.833834013831966e-17,3.758728726019201e-17,0.0,0.0,-0.0
1654044070.8571877,106,1654044070,856551093,,33.753104,-80.6446345,-4.230186208527623,32.87894821166992,-4.991297721862793,-1.7885464429855347,0.7894250027350693,0.6138469848835064,4.833834013831966e-17,3.758728726019201e-17,0.0,0.0,-0.0
1654044072.8546193,107,1654044072,854225073,,33.753104,-80.6446345,-4.230186208527623,32.87894821166992,-4.991297721862793,-1.7885464429855347,0.7894250027350693,0.6138469848835064,4.833834013831966e-17,3.758728726019201e-17,0.0,0.0,-0.0
1654044074.8573682,108,1654044074,856892961,,33.753104,-80.6446345,-4.230186208527623,32.87894821166992,-4.991297721862793,-1.7885464429855347,0.7894250027350693,0.6138469848835064,4.833834013831966e-17,3.758728726019201e-17,0.0,0.0,-0.0
1654044076.8549836,109,1654044076,854533867,,33.753104,-80.6446345,-4.230186208527623,32.87894821166992,-4.991297721862793,-1.7885464429855347,0.7894250027350693,0.6138469848835064,4.833834013831966e-17,3.758728726019201e-17,0.0,0.0,-0.0
1654044078.8577945,110,1654044078,857269144,,33.753104,-80.6446345,-4.230186208527623,32.87894821166992,-4.991297721862793,-1.7885464429855347,0.7894250027350693,0.6138469848835064,4.833834013831966e-17,3.758728726019201e-17,0.0,0.0,-0.0
1654044080.856394,111,1654044080,855913531,,33.753104,-80.6446345,-4.230186208527623,32.87894821166992,-4.991297721862793,-1.7885464429855347,0.7894250027350693,0.6138469848835064,4.833834013831966e-17,3.758728726019201e-17,0.0,0.0,-0.0
1654044082.8571439,112,1654044082,856619512,,33.753104,-80.6446345,-4.230186208527623,32.87894821166992,-4.991297721862793,-1.7885464429855347,0.7894250027350693,0.6138469848835064,4.833834013831966e-17,3.758728726019201e-17,0.0,0.0,-0.0
1654044084.855798,113,1654044084,855327510,,33.7531077,-80.6446363,-4.358182489287085,32.71828079223633,-4.571225166320801,-1.9162654876708984,0.7888332293718401,0.6146073456407793,4.830210447056468e-17,3.7633845928571585e-17,0.0,0.0,-0.0
1654044086.857421,114,1654044086,856939898,,33.7531077,-80.6446363,-4.358182489287085,32.71828079223633,-4.571225166320801,-1.9162654876708984,0.7888332293718401,0.6146073456407793,4.830210447056468e-17,3.7633845928571585e-17,0.0,0.0,-0.0
1654044088.8550575,115,1654044088,854646119,,33.7531077,-80.6446363,-4.358182489287085,32.71828079223633,-4.571225166320801,-1.9162654876708984,0.7888332293718401,0.6146073456407793,4.830210447056468e-17,3.7633845928571585e-17,0.0,0.0,-0.0
1654044090.85576,116,1654044090,855298137,,33.7531077,-80.6446363,-4.358182489287085,32.71828079223633,-4.571225166320801,-1.9162654876708984,0.7888332293718401,0.6146073456407793,4.830210447056468e-17,3.7633845928571585e-17,0.0,0.0,-0.0
1654044092.856481,117,1654044092,856004080,,33.7531077,-80.6446363,-4.358182489287085,32.71828079223633,-4.571225166320801,-1.9162654876708984,0.7888332293718401,0.6146073456407793,4.830210447056468e-17,3.7633845928571585e-17,0.0,0.0,-0.0
1654044094.8571928,118,1654044094,856643949,,33.7531077,-80.6446363,-4.358182489287085,32.71828079223633,-4.571225166320801,-1.9162654876708984,0.7888332293718401,0.6146073456407793,4.830210447056468e-17,3.7633845928571585e-17,0.0,0.0,-0.0
1654044096.8567696,119,1654044096,856312818,,33.7531051,-80.6446326,-4.361187024188336,33.05897903442383,-4.866549491882324,-1.9195828437805176,0.7887138431550769,0.6147605336300482,4.8294794173153616e-17,3.764322598760788e-17,0.0,0.0,-0.0
1654044098.8594284,120,1654044098,859088039,,33.7531051,-80.6446326,-4.361187024188336,33.05897903442383,-4.866549491882324,-1.9195828437805176,0.7887138431550769,0.6147605336300482,4.8294794173153616e-17,3.764322598760788e-17,0.0,0.0,-0.0
1654044100.855098,121,1654044100,854697945,,33.7531051,-80.6446326,-4.361187024188336,33.05897903442383,-4.866549491882324,-1.9195828437805176,0.7887138431550769,0.6147605336300482,4.8294794173153616e-17,3.764322598760788e-17,0.0,0.0,-0.0
1654044102.855761,122,1654044102,855338315,,33.7531051,-80.6446326,-4.361187024188336,33.05897903442383,-4.866549491882324,-1.9195828437805176,0.7887138431550769,0.6147605336300482,4.8294794173153616e-17,3.764322598760788e-17,0.0,0.0,-0.0
1654044104.8555,123,1654044104,855038424,,33.7531051,-80.6446326,-4.361187024188336,33.05897903442383,-4.866549491882324,-1.9195828437805176,0.7887138431550769,0.6147605336300482,4.8294794173153616e-17,3.764322598760788e-17,0.0,0.0,-0.0
1654044106.8572915,124,1654044106,856710071,,33.7531029,-80.6446284,-4.429191705039894,33.44083023071289,-5.1049370765686035,-1.9873709678649902,0.7882658379604742,0.6153348107827895,4.826736176677504e-17,3.767839032145428e-17,0.0,0.0,-0.0
1654044108.8568852,125,1654044108,856402348,,33.7531029,-80.6446284,-4.429191705039894,33.44083023071289,-5.1049370765686035,-1.9873709678649902,0.7882658379604742,0.6153348107827895,4.826736176677504e-17,3.767839032145428e-17,0.0,0.0,-0.0
1654044110.8565364,126,1654044110,856093902,,33.7531029,-80.6446284,-4.429191705039894,33.44083023071289,-5.1049370765686035,-1.9873709678649902,0.7882658379604742,0.6153348107827895,4.826736176677504e-17,3.767839032145428e-17,0.0,0.0,-0.0
1654044112.8552394,127,1654044112,854780642,,33.7531029,-80.6446284,-4.429191705039894,33.44083023071289,-5.1049370765686035,-1.9873709678649902,0.7882658379604742,0.6153348107827895,4.826736176677504e-17,3.767839032145428e-17,0.0,0.0,-0.0
1654044114.8579707,128,1654044114,857454678,,33.7531029,-80.6446284,-4.429191705039894,33.44083023071289,-5.1049370765686035,-1.9873709678649902,0.7882658379604742,0.6153348107827895,4.826736176677504e-17,3.767839032145428e-17,0.0,0.0,-0.0
1654044116.8555105,129,1654044116,855112732,,33.7531029,-80.6446284,-4.429191705039894,33.44083023071289,-5.1049370765686035,-1.9873709678649902,0.7882658379604742,0.6153348107827895,4.826736176677504e-17,3.767839032145428e-17,0.0,0.0,-0.0
1654044118.8572588,130,1654044118,856778064,,33.7531029,-80.6446284,-4.429191705039894,33.44083023071289,-5.1049370765686035,-1.9873709678649902,0.7882658379604742,0.6153348107827895,4.826736176677504e-17,3.767839032145428e-17,0.0,0.0,-0.0
1654044120.8581283,131,1654044120,857646211,,33.7531029,-80.6446284,-4.429191705039894,33.44083023071289,-5.1049370765686035,-1.9873709678649902,0.7882658379604742,0.6153348107827895,4.826736176677504e-17,3.767839032145428e-17,0.0,0.0,-0.0
1654044122.8574204,132,1654044122,857066062,,33.7531029,-80.6446284,-4.429191705039894,33.44083023071289,-5.1049370765686035,-1.9873709678649902,0.7882658379604742,0.6153348107827895,4.826736176677504e-17,3.767839032145428e-17,0.0,0.0,-0.0
1654044124.857197,133,1654044124,856832116,,33.7531029,-80.6446284,-4.429191705039894,33.44083023071289,-5.1049370765686035,-1.9873709678649902,0.7882658379604742,0.6153348107827895,4.826736176677504e-17,3.767839032145428e-17,0.0,0.0,-0.0
1654044126.8578126,134,1654044126,857454004,,33.7531043,-80.6446331,-4.493187126754261,33.007423400878906,-4.950170516967773,-2.0511090755462646,0.7880098538076873,0.615662613165439,4.825168725810789e-17,3.7698462428387516e-17,0.0,0.0,-0.0
1654044128.8585696,135,1654044128,858139040,,33.7531043,-80.6446331,-4.493187126754261,33.007423400878906,-4.950170516967773,-2.0511090755462646,0.7880098538076873,0.615662613165439,4.825168725810789e-17,3.7698462428387516e-17,0.0,0.0,-0.0
1654044130.8574252,136,1654044130,856901039,,33.7531043,-80.6446331,-4.493187126754261,33.007423400878906,-4.950170516967773,-2.0511090755462646,0.7880098538076873,0.615662613165439,4.825168725810789e-17,3.7698462428387516e-17,0.0,0.0,-0.0
1654044132.855878,137,1654044132,855475963,,33.7531043,-80.6446331,-4.493187126754261,33.007423400878906,-4.950170516967773,-2.0511090755462646,0.7880098538076873,0.615662613165439,4.825168725810789e-17,3.7698462428387516e-17,0.0,0.0,-0.0
1654044134.8564973,138,1654044134,856171758,,33.7531043,-80.6446331,-4.493187126754261,33.007423400878906,-4.950170516967773,-2.0511090755462646,0.7880098538076873,0.615662613165439,4.825168725810789e-17,3.7698462428387516e-17,0.0,0.0,-0.0
1654044136.8584263,139,1654044136,857918924,,33.7531043,-80.6446331,-4.493187126754261,33.007423400878906,-4.950170516967773,-2.0511090755462646,0.7880098538076873,0.615662613165439,4.825168725810789e-17,3.7698462428387516e-17,0.0,0.0,-0.0
1654044138.8569646,140,1654044138,856531886,,33.7531043,-80.6446331,-4.493187126754261,33.007423400878906,-4.950170516967773,-2.0511090755462646,0.7880098538076873,0.615662613165439,4.825168725810789e-17,3.7698462428387516e-17,0.0,0.0,-0.0
1654044140.857735,141,1654044140,857266551,,33.7531043,-80.6446331,-4.493187126754261,33.007423400878906,-4.950170516967773,-2.0511090755462646,0.7880098538076873,0.615662613165439,4.825168725810789e-17,3.7698462428387516e-17,0.0,0.0,-0.0
1654044142.8563976,142,1654044142,855968031,,33.7531043,-80.6446331,-4.493187126754261,33.007423400878906,-4.950170516967773,-2.0511090755462646,0.7880098538076873,0.615662613165439,4.825168725810789e-17,3.7698462428387516e-17,0.0,0.0,-0.0
1654044144.8570206,143,1654044144,856576919,,33.7531043,-80.6446331,-4.493187126754261,33.007423400878906,-4.950170516967773,-2.0511090755462646,0.7880098538076873,0.615662613165439,4.825168725810789e-17,3.7698462428387516e-17,0.0,0.0,-0.0
1654044146.8587525,144,1654044146,858272066,,33.7531043,-80.6446331,-4.493187126754261,33.007423400878906,-4.950170516967773,-2.0511090755462646,0.7880098538076873,0.615662613165439,4.825168725810789e-17,3.7698462428387516e-17,0.0,0.0,-0.0
1654044148.8562732,145,1654044148,855955417,,33.7531043,-80.6446331,-4.493187126754261,33.007423400878906,-4.950170516967773,-2.0511090755462646,0.7880098538076873,0.615662613165439,4.825168725810789e-17,3.7698462428387516e-17,0.0,0.0,-0.0
1654044150.8579948,146,1654044150,857639193,,33.7531043,-80.6446331,-4.493187126754261,33.007423400878906,-4.950170516967773,-2.0511090755462646,0.7880098538076873,0.615662613165439,4.825168725810789e-17,3.7698462428387516e-17,0.0,0.0,-0.0
1654044152.860638,147,1654044152,860350026,,33.7531043,-80.6446331,-4.493187126754261,33.007423400878906,-4.950170516967773,-2.0511090755462646,0.7880098538076873,0.615662613165439,4.825168725810789e-17,3.7698462428387516e-17,0.0,0.0,-0.0
1654044154.8584445,148,1654044154,857975876,,33.7531043,-80.6446331,-4.493187126754261,33.007423400878906,-4.950170516967773,-2.0511090755462646,0.7880098538076873,0.615662613165439,4.825168725810789e-17,3.7698462428387516e-17,0.0,0.0,-0.0
1654044156.8582141,149,1654044156,857723634,,33.7531044,-80.6446282,-4.563190930834207,33.4627799987793,-4.943141937255859,-2.121091842651367,0.7881266690666914,0.6155130919519907,4.8258840129759434e-17,3.76893068946148e-17,0.0,0.0,-0.0
1654044158.8576825,150,1654044158,857337874,,33.7531044,-80.6446282,-4.563190930834207,33.4627799987793,-4.943141937255859,-2.121091842651367,0.7881266690666914,0.6155130919519907,4.8258840129759434e-17,3.76893068946148e-17,0.0,0.0,-0.0
1654044160.856378,151,1654044160,856046502,,33.7531044,-80.6446282,-4.563190930834207,33.4627799987793,-4.943141937255859,-2.121091842651367,0.7881266690666914,0.6155130919519907,4.8258840129759434e-17,3.76893068946148e-17,0.0,0.0,-0.0
1654044162.8580523,152,1654044162,857706149,,33.7531044,-80.6446282,-4.563190930834207,33.4627799987793,-4.943141937255859,-2.121091842651367,0.7881266690666914,0.6155130919519907,4.8258840129759434e-17,3.76893068946148e-17,0.0,0.0,-0.0
1654044164.8579104,153,1654044164,857408018,,33.7531044,-80.6446282,-4.563190930834207,33.4627799987793,-4.943141937255859,-2.121091842651367,0.7881266690666914,0.6155130919519907,4.8258840129759434e-17,3.76893068946148e-17,0.0,0.0,-0.0
1654044166.856577,154,1654044166,856091313,,33.7531071,-80.6446244,-4.579192251508964,33.81282043457031,-4.645276069641113,-2.1372132301330566,0.7877071287999018,0.6160498847513375,4.823315069751757e-17,3.7722175973791074e-17,0.0,0.0,-0.0
1654044168.8581793,155,1654044168,857728460,,33.7531071,-80.6446244,-4.579192251508964,33.81282043457031,-4.645276069641113,-2.1372132301330566,0.7877071287999018,0.6160498847513375,4.823315069751757e-17,3.7722175973791074e-17,0.0,0.0,-0.0
1654044170.8579385,156,1654044170,857460367,,33.7531071,-80.6446244,-4.579192251508964,33.81282043457031,-4.645276069641113,-2.1372132301330566,0.7877071287999018,0.6160498847513375,4.823315069751757e-17,3.7722175973791074e-17,0.0,0.0,-0.0
1654044172.856548,157,1654044172,856110495,,33.7531071,-80.6446244,-4.579192251508964,33.81282043457031,-4.645276069641113,-2.1372132301330566,0.7877071287999018,0.6160498847513375,4.823315069751757e-17,3.7722175973791074e-17,0.0,0.0,-0.0
1654044174.858284,158,1654044174,857784957,,33.7531071,-80.6446244,-4.579192251508964,33.81282043457031,-4.645276069641113,-2.1372132301330566,0.7877071287999018,0.6160498847513375,4.823315069751757e-17,3.7722175973791074e-17,0.0,0.0,-0.0
1654044176.8579044,159,1654044176,857445641,,33.7531071,-80.6446244,-4.579192251508964,33.81282043457031,-4.645276069641113,-2.1372132301330566,0.7877071287999018,0.6160498847513375,4.823315069751757e-17,3.7722175973791074e-17,0.0,0.0,-0.0
1654044178.8586142,160,1654044178,858173362,,33.7531071,-80.6446244,-4.579192251508964,33.81282043457031,-4.645276069641113,-2.1372132301330566,0.7877071287999018,0.6160498847513375,4.823315069751757e-17,3.7722175973791074e-17,0.0,0.0,-0.0
1654044180.856425,161,1654044180,855858009,,33.7531071,-80.6446244,-4.579192251508964,33.81282043457031,-4.645276069641113,-2.1372132301330566,0.7877071287999018,0.6160498847513375,4.823315069751757e-17,3.7722175973791074e-17,0.0,0.0,-0.0
1654044182.8579524,162,1654044182,857499359,,33.7531071,-80.6446244,-4.579192251508964,33.81282043457031,-4.645276069641113,-2.1372132301330566,0.7877071287999018,0.6160498847513375,4.823315069751757e-17,3.7722175973791074e-17,0.0,0.0,-0.0
1654044184.8566315,163,1654044184,856187710,,33.7531071,-80.6446244,-4.579192251508964,33.81282043457031,-4.645276069641113,-2.1372132301330566,0.7877071287999018,0.6160498847513375,4.823315069751757e-17,3.7722175973791074e-17,0.0,0.0,-0.0
1654044186.857202,164,1654044186,856830783,,33.7531071,-80.6446244,-4.579192251508964,33.81282043457031,-4.645276069641113,-2.1372132301330566,0.7877071287999018,0.6160498847513375,4.823315069751757e-17,3.7722175973791074e-17,0.0,0.0,-0.0
1654044188.858809,165,1654044188,858483393,,33.7531071,-80.6446244,-4.579192251508964,33.81282043457031,-4.645276069641113,-2.1372132301330566,0.7877071287999018,0.6160498847513375,4.823315069751757e-17,3.7722175973791074e-17,0.0,0.0,-0.0
1654044190.8564727,166,1654044190,856155929,,33.7531071,-80.6446244,-4.579192251508964,33.81282043457031,-4.645276069641113,-2.1372132301330566,0.7877071287999018,0.6160498847513375,4.823315069751757e-17,3.7722175973791074e-17,0.0,0.0,-0.0
1654044192.8574708,167,1654044192,856917020,,33.7531071,-80.6446244,-4.579192251508964,33.81282043457031,-4.645276069641113,-2.1372132301330566,0.7877071287999018,0.6160498847513375,4.823315069751757e-17,3.7722175973791074e-17,0.0,0.0,-0.0
1654044194.8613222,168,1654044194,860829760,,33.7531007,-80.6446264,-4.454194650023105,33.62678909301758,-5.351873874664307,-2.012727975845337,0.7880406262754563,0.6156232427405739,4.8253571528315655e-17,3.7696051685147906e-17,0.0,0.0,-0.0
1654044196.8568368,169,1654044196,856371055,,33.7531007,-80.6446264,-4.454194650023105,33.62678909301758,-5.351873874664307,-2.012727975845337,0.7880406262754563,0.6156232427405739,4.8253571528315655e-17,3.7696051685147906e-17,0.0,0.0,-0.0
1654044198.8583527,170,1654044198,857923665,,33.7531007,-80.6446264,-4.454194650023105,33.62678909301758,-5.351873874664307,-2.012727975845337,0.7880406262754563,0.6156232427405739,4.8253571528315655e-17,3.7696051685147906e-17,0.0,0.0,-0.0
1654044200.8571913,171,1654044200,856651164,,33.7531007,-80.6446264,-4.454194650023105,33.62678909301758,-5.351873874664307,-2.012727975845337,0.7880406262754563,0.6156232427405739,4.8253571528315655e-17,3.7696051685147906e-17,0.0,0.0,-0.0
1654044202.8577688,172,1654044202,857317662,,33.7531007,-80.6446264,-4.454194650023105,33.62678909301758,-5.351873874664307,-2.012727975845337,0.7880406262754563,0.6156232427405739,4.8253571528315655e-17,3.7696051685147906e-17,0.0,0.0,-0.0
1654044204.8584619,173,1654044204,857989846,,33.7530987,-80.6446221,-4.543199285474053,34.02494812011719,-5.5807952880859375,-2.101306676864624,0.7882825966011134,0.6153133316951171,4.8268387937555876e-17,3.7677075106655954e-17,0.0,0.0,-0.0
1654044206.8590899,174,1654044206,858743067,,33.7530987,-80.6446221,-4.543199285474053,34.02494812011719,-5.5807952880859375,-2.101306676864624,0.7882825966011134,0.6153133316951171,4.8268387937555876e-17,3.7677075106655954e-17,0.0,0.0,-0.0
1654044208.8598006,175,1654044208,859417900,,33.7530987,-80.6446221,-4.543199285474053,34.02494812011719,-5.5807952880859375,-2.101306676864624,0.7882825966011134,0.6153133316951171,4.8268387937555876e-17,3.7677075106655954e-17,0.0,0.0,-0.0
1654044210.8588655,176,1654044210,858323195,,33.7530987,-80.6446221,-4.543199285474053,34.02494812011719,-5.5807952880859375,-2.101306676864624,0.7882825966011134,0.6153133316951171,4.8268387937555876e-17,3.7677075106655954e-17,0.0,0.0,-0.0
1654044212.8611236,177,1654044212,860744453,,33.7530987,-80.6446221,-4.543199285474053,34.02494812011719,-5.5807952880859375,-2.101306676864624,0.7882825966011134,0.6153133316951171,4.8268387937555876e-17,3.7677075106655954e-17,0.0,0.0,-0.0
1654044214.8587599,178,1654044214,858404507,,33.7530987,-80.6446221,-4.543199285474053,34.02494812011719,-5.5807952880859375,-2.101306676864624,0.7882825966011134,0.6153133316951171,4.8268387937555876e-17,3.7677075106655954e-17,0.0,0.0,-0.0
1654044216.8603725,179,1654044216,859334302,,33.7530987,-80.6446221,-4.543199285474053,34.02494812011719,-5.5807952880859375,-2.101306676864624,0.7882825966011134,0.6153133316951171,4.8268387937555876e-17,3.7677075106655954e-17,0.0,0.0,-0.0
1654044218.8612561,180,1654044218,860774690,,33.7530987,-80.6446221,-4.543199285474053,34.02494812011719,-5.5807952880859375,-2.101306676864624,0.7882825966011134,0.6153133316951171,4.8268387937555876e-17,3.7677075106655954e-17,0.0,0.0,-0.0
1654044220.8610044,181,1654044220,860628115,,33.7530987,-80.6446221,-4.543199285474053,34.02494812011719,-5.5807952880859375,-2.101306676864624,0.7882825966011134,0.6153133316951171,4.8268387937555876e-17,3.7677075106655954e-17,0.0,0.0,-0.0
1654044222.860902,182,1654044222,860423965,,33.7530987,-80.6446221,-4.543199285474053,34.02494812011719,-5.5807952880859375,-2.101306676864624,0.7882825966011134,0.6153133316951171,4.8268387937555876e-17,3.7677075106655954e-17,0.0,0.0,-0.0
1654044224.8610783,183,1654044224,860779927,,33.7530987,-80.6446221,-4.543199285474053,34.02494812011719,-5.5807952880859375,-2.101306676864624,0.7882825966011134,0.6153133316951171,4.8268387937555876e-17,3.7677075106655954e-17,0.0,0.0,-0.0
1654044226.858695,184,1654044226,858433315,,33.7531004,-80.6446267,-4.894194599716251,33.605712890625,-5.392696857452393,-2.451979637145996,0.789088465418066,0.6142795327214177,4.8317733170916564e-17,3.7613773176450816e-17,0.0,0.0,-0.0
1654044228.8617,185,1654044228,861221814,,33.7531004,-80.6446267,-4.894194599716251,33.605712890625,-5.392696857452393,-2.451979637145996,0.789088465418066,0.6142795327214177,4.8317733170916564e-17,3.7613773176450816e-17,0.0,0.0,-0.0
1654044230.861321,186,1654044230,860916368,,33.7531004,-80.6446267,-4.894194599716251,33.605712890625,-5.392696857452393,-2.451979637145996,0.789088465418066,0.6142795327214177,4.8317733170916564e-17,3.7613773176450816e-17,0.0,0.0,-0.0
1654044232.8603587,187,1654044232,859788182,,33.7531017,-80.6446314,-4.883190083581123,33.171241760253906,-5.244788646697998,-2.441370964050293,0.7891445101898733,0.6142075564408732,4.83211649234367e-17,3.7609365900371645e-17,0.0,0.0,-0.0
1654044234.8616052,188,1654044234,861202958,,33.7531017,-80.6446314,-4.883190083581123,33.171241760253906,-5.244788646697998,-2.441370964050293,0.7891445101898733,0.6142075564408732,4.83211649234367e-17,3.7609365900371645e-17,0.0,0.0,-0.0
1654044261.6646621,189,1654044261,664244757,,33.7530974,-80.6446502,-6.939177921880521,-0.004744493868201971,-4.717583942692727e-05,-0.14062535762786865,0.8366619261406241,0.5477196753879751,5.1230767490828715e-17,3.3538157364695555e-17,0.0,0.0,-0.0
1654044263.664216,190,1654044263,663703959,,33.7530974,-80.6446502,-6.939177921880521,-0.004744493868201971,-4.717583942692727e-05,-0.14062535762786865,0.8366619261406241,0.5477196753879751,5.1230767490828715e-17,3.3538157364695555e-17,0.0,0.0,-0.0
1654044265.66378,191,1654044265,663330403,,33.7530974,-80.6446502,-6.939177921880521,-0.004744493868201971,-4.717583942692727e-05,-0.14062535762786865,0.8366619261406241,0.5477196753879751,5.1230767490828715e-17,3.3538157364695555e-17,0.0,0.0,-0.0
1654044267.6640646,192,1654044267,662980179,,33.7530974,-80.6446502,-6.939177921880521,-0.004744493868201971,-4.717583942692727e-05,-0.14062535762786865,0.8366619261406241,0.5477196753879751,5.1230767490828715e-17,3.3538157364695555e-17,0.0,0.0,-0.0
1654044269.6639695,193,1654044269,663638456,,33.7530974,-80.6446502,-6.939177921880521,-0.004744493868201971,-4.717583942692727e-05,-0.14062535762786865,0.8366619261406241,0.5477196753879751,5.1230767490828715e-17,3.3538157364695555e-17,0.0,0.0,-0.0
1654044271.663629,194,1654044271,663286732,,33.7530974,-80.6446502,-6.939177921880521,-0.004744493868201971,-4.717583942692727e-05,-0.14062535762786865,0.8366619261406241,0.5477196753879751,5.1230767490828715e-17,3.3538157364695555e-17,0.0,0.0,-0.0
1654044273.6635022,195,1654044273,663033454,,33.7530974,-80.6446502,-6.939177921880521,-0.004744493868201971,-4.717583942692727e-05,-0.14062535762786865,0.8366619261406241,0.5477196753879751,5.1230767490828715e-17,3.3538157364695555e-17,0.0,0.0,-0.0
1654044275.6640596,196,1654044275,663103675,,33.7530974,-80.6446502,-6.939177921880521,-0.004744493868201971,-4.717583942692727e-05,-0.14062535762786865,0.8366619261406241,0.5477196753879751,5.1230767490828715e-17,3.3538157364695555e-17,0.0,0.0,-0.0
1654044277.6646836,197,1654044277,664370655,,33.7530974,-80.6446502,-6.939177921880521,-0.004744493868201971,-4.717583942692727e-05,-0.14062535762786865,0.8366619261406241,0.5477196753879751,5.1230767490828715e-17,3.3538157364695555e-17,0.0,0.0,-0.0
1654044279.663615,198,1654044279,663027357,,33.7530974,-80.6446502,-6.939177921880521,-0.004744493868201971,-4.717583942692727e-05,-0.14062535762786865,0.8366619261406241,0.5477196753879751,5.1230767490828715e-17,3.3538157364695555e-17,0.0,0.0,-0.0
1654044281.663225,199,1654044281,662851764,,33.7531015,-80.6446493,-6.890176084452044,0.07971865683794022,0.446731299161911,-0.09142155945301056,0.8392922371992041,0.5436805637710699,5.139182759176131e-17,3.329083310904347e-17,0.0,0.0,-0.0
1654044283.663702,200,1654044283,663380670,,33.7531015,-80.6446493,-6.890176084452044,0.07971865683794022,0.446731299161911,-0.09142155945301056,0.8392922371992041,0.5436805637710699,5.139182759176131e-17,3.329083310904347e-17,0.0,0.0,-0.0
1654044285.6638095,201,1654044285,663319576,,33.7531015,-80.6446493,-6.890176084452044,0.07971865683794022,0.446731299161911,-0.09142155945301056,0.8392922371992041,0.5436805637710699,5.139182759176131e-17,3.329083310904347e-17,0.0,0.0,-0.0
1654044287.6640882,202,1654044287,663719093,,33.7531015,-80.6446493,-6.890176084452044,0.07971865683794022,0.446731299161911,-0.09142155945301056,0.8392922371992041,0.5436805637710699,5.139182759176131e-17,3.329083310904347e-17,0.0,0.0,-0.0
1654044289.6649492,203,1654044289,664370981,,33.7531015,-80.6446493,-6.890176084452044,0.07971865683794022,0.446731299161911,-0.09142155945301056,0.8392922371992041,0.5436805637710699,5.139182759176131e-17,3.329083310904347e-17,0.0,0.0,-0.0
1654044291.6644754,204,1654044291,664187887,,33.7531019,-80.6446444,-6.988179702079265,0.5321903824806213,0.490730881690979,-0.1887843906879425,0.8353742977717677,0.5496814847456116,5.115192299280816e-17,3.3658283542213904e-17,0.0,0.0,-0.0
1654044293.6641684,205,1654044293,663784275,,33.7531019,-80.6446444,-6.988179702079265,0.5321903824806213,0.490730881690979,-0.1887843906879425,0.8353742977717677,0.5496814847456116,5.115192299280816e-17,3.3658283542213904e-17,0.0,0.0,-0.0
1654044295.6610377,206,1654044295,660659255,,33.7531019,-80.6446444,-6.988179702079265,0.5321903824806213,0.490730881690979,-0.1887843906879425,0.8353742977717677,0.5496814847456116,5.115192299280816e-17,3.3658283542213904e-17,0.0,0.0,-0.0
1654044297.663079,207,1654044297,662120291,,33.7531019,-80.6446444,-6.988179702079265,0.5321903824806213,0.490730881690979,-0.1887843906879425,0.8353742977717677,0.5496814847456116,5.115192299280816e-17,3.3658283542213904e-17,0.0,0.0,-0.0
1654044299.6610909,208,1654044299,660736957,,33.7531019,-80.6446444,-6.988179702079265,0.5321903824806213,0.490730881690979,-0.1887843906879425,0.8353742977717677,0.5496814847456116,5.115192299280816e-17,3.3658283542213904e-17,0.0,0.0,-0.0
1654044301.661939,209,1654044301,661498622,,33.7531019,-80.6446444,-6.988179702079265,0.5321903824806213,0.490730881690979,-0.1887843906879425,0.8353742977717677,0.5496814847456116,5.115192299280816e-17,3.3658283542213904e-17,0.0,0.0,-0.0
1654044303.6605403,210,1654044303,660112991,,33.753103,-80.6446417,-6.870181148937068,0.7801653146743774,0.6157162189483643,-0.07080693542957306,0.8544520476767996,0.5195302404502213,5.232009826061471e-17,3.1812052301380934e-17,0.0,0.0,-0.0
1654044305.6603065,211,1654044305,659930712,,33.753103,-80.6446417,-6.870181148937068,0.7801653146743774,0.6157162189483643,-0.07080693542957306,0.8544520476767996,0.5195302404502213,5.232009826061471e-17,3.1812052301380934e-17,0.0,0.0,-0.0
1654044307.660849,212,1654044307,660456415,,33.753103,-80.6446417,-6.870181148937068,0.7801653146743774,0.6157162189483643,-0.07080693542957306,0.8544520476767996,0.5195302404502213,5.232009826061471e-17,3.1812052301380934e-17,0.0,0.0,-0.0
1654044309.661605,213,1654044309,661168043,,33.753103,-80.6446417,-6.870181148937068,0.7801653146743774,0.6157162189483643,-0.07080693542957306,0.8544520476767996,0.5195302404502213,5.232009826061471e-17,3.1812052301380934e-17,0.0,0.0,-0.0
1654044311.6611996,214,1654044311,660831060,,33.753103,-80.6446417,-6.870181148937068,0.7801653146743774,0.6157162189483643,-0.07080693542957306,0.8544520476767996,0.5195302404502213,5.232009826061471e-17,3.1812052301380934e-17,0.0,0.0,-0.0
1654044313.6618836,215,1654044313,661509374,,33.753103,-80.6446417,-6.870181148937068,0.7801653146743774,0.6157162189483643,-0.07080693542957306,0.8544520476767996,0.5195302404502213,5.232009826061471e-17,3.1812052301380934e-17,0.0,0.0,-0.0
1654044315.6617851,216,1654044315,661162095,,33.753103,-80.6446417,-6.870181148937068,0.7801653146743774,0.6157162189483643,-0.07080693542957306,0.8544520476767996,0.5195302404502213,5.232009826061471e-17,3.1812052301380934e-17,0.0,0.0,-0.0
1654044317.6603448,217,1654044317,659881650,,33.753103,-80.6446417,-6.870181148937068,0.7801653146743774,0.6157162189483643,-0.07080693542957306,0.8544520476767996,0.5195302404502213,5.232009826061471e-17,3.1812052301380934e-17,0.0,0.0,-0.0
1654044319.6599207,218,1654044319,659553926,,33.753103,-80.6446417,-6.870181148937068,0.7801653146743774,0.6157162189483643,-0.07080693542957306,0.8544520476767996,0.5195302404502213,5.232009826061471e-17,3.1812052301380934e-17,0.0,0.0,-0.0
1654044321.6615994,219,1654044321,661199703,,33.753103,-80.6446417,-6.870181148937068,0.7801653146743774,0.6157162189483643,-0.07080693542957306,0.8544520476767996,0.5195302404502213,5.232009826061471e-17,3.1812052301380934e-17,0.0,0.0,-0.0
1654044323.6603403,220,1654044323,659904924,,33.7530992,-80.6446436,-7.074182010929917,0.6032240390777588,0.19790980219841003,-0.27501967549324036,0.808014671060921,0.5891623765007976,4.9476629028942906e-17,3.607579092798749e-17,0.0,0.0,-0.0
1654044325.660968,221,1654044325,660568885,,33.7530992,-80.6446436,-7.074182010929917,0.6032240390777588,0.19790980219841003,-0.27501967549324036,0.808014671060921,0.5891623765007976,4.9476629028942906e-17,3.607579092798749e-17,0.0,0.0,-0.0
1654044327.6616,222,1654044327,661246218,,33.7530992,-80.6446436,-7.074182010929917,0.6032240390777588,0.19790980219841003,-0.27501967549324036,0.808014671060921,0.5891623765007976,4.9476629028942906e-17,3.607579092798749e-17,0.0,0.0,-0.0
1654044329.6624608,223,1654044329,661949031,,33.7531008,-80.6446389,-6.698184725148856,1.0421783924102783,0.375658243894577,0.10095494985580444,-0.17922357273378525,0.9838083437996018,-1.0974278734009162e-17,6.024088696043205e-17,0.0,0.0,-0.0
1654044331.6610293,224,1654044331,660575512,,33.7531008,-80.6446389,-6.698184725148856,1.0421783924102783,0.375658243894577,0.10095494985580444,-0.17922357273378525,0.9838083437996018,-1.0974278734009162e-17,6.024088696043205e-17,0.0,0.0,-0.0
1654044333.6608777,225,1654044333,660474955,,33.7531008,-80.6446389,-6.698184725148856,1.0421783924102783,0.375658243894577,0.10095494985580444,-0.17922357273378525,0.9838083437996018,-1.0974278734009162e-17,6.024088696043205e-17,0.0,0.0,-0.0
1654044335.661373,226,1654044335,661015491,,33.7531008,-80.6446389,-6.698184725148856,1.0421783924102783,0.375658243894577,0.10095494985580444,-0.17922357273378525,0.9838083437996018,-1.0974278734009162e-17,6.024088696043205e-17,0.0,0.0,-0.0
1654044337.6623843,227,1654044337,661714193,,33.7531008,-80.6446389,-6.698184725148856,1.0421783924102783,0.375658243894577,0.10095494985580444,-0.17922357273378525,0.9838083437996018,-1.0974278734009162e-17,6.024088696043205e-17,0.0,0.0,-0.0
1654044339.6617644,228,1654044339,661311822,,33.7531008,-80.6446389,-6.698184725148856,1.0421783924102783,0.375658243894577,0.10095494985580444,-0.17922357273378525,0.9838083437996018,-1.0974278734009162e-17,6.024088696043205e-17,0.0,0.0,-0.0
1654044341.6614246,229,1654044341,660962506,,33.7531016,-80.644634,-7.183188094263073,1.4896093606948853,0.4599001407623291,-0.3838387131690979,-0.5499842255584654,0.8351750696188568,-3.3676821070585536e-17,5.113972378682003e-17,0.0,0.0,-0.0
1654044343.6601048,230,1654044343,659716893,,33.7531016,-80.644634,-7.183188094263073,1.4896093606948853,0.4599001407623291,-0.3838387131690979,-0.5499842255584654,0.8351750696188568,-3.3676821070585536e-17,5.113972378682003e-17,0.0,0.0,-0.0
1654044345.6635704,231,1654044345,662456948,,33.7531016,-80.644634,-7.183188094263073,1.4896093606948853,0.4599001407623291,-0.3838387131690979,-0.5499842255584654,0.8351750696188568,-3.3676821070585536e-17,5.113972378682003e-17,0.0,0.0,-0.0
1654044347.6602888,232,1654044347,659976113,,33.7531016,-80.644634,-7.183188094263073,1.4896093606948853,0.4599001407623291,-0.3838387131690979,-0.5499842255584654,0.8351750696188568,-3.3676821070585536e-17,5.113972378682003e-17,0.0,0.0,-0.0
1654044349.6609817,233,1654044349,660707890,,33.7531016,-80.644634,-7.183188094263073,1.4896093606948853,0.4599001407623291,-0.3838387131690979,-0.5499842255584654,0.8351750696188568,-3.3676821070585536e-17,5.113972378682003e-17,0.0,0.0,-0.0
1654044351.6658945,234,1654044351,665469018,,33.7531051,-80.6446303,-7.043188838942761,1.8362034559249878,0.8527898788452148,-0.2438976913690567,-0.6395169707793319,0.768776982426711,-3.915912056326602e-17,4.7074013539351623e-17,0.0,0.0,-0.0
1654044353.6627681,235,1654044353,662128295,,33.7531051,-80.6446303,-7.043188838942761,1.8362034559249878,0.8527898788452148,-0.2438976913690567,-0.6395169707793319,0.768776982426711,-3.915912056326602e-17,4.7074013539351623e-17,0.0,0.0,-0.0
1654044355.6611729,236,1654044355,660744812,,33.7531051,-80.6446303,-7.043188838942761,1.8362034559249878,0.8527898788452148,-0.2438976913690567,-0.6395169707793319,0.768776982426711,-3.915912056326602e-17,4.7074013539351623e-17,0.0,0.0,-0.0
1654044357.6630952,237,1654044357,662508811,,33.7531051,-80.6446303,-7.043188838942761,1.8362034559249878,0.8527898788452148,-0.2438976913690567,-0.6395169707793319,0.768776982426711,-3.915912056326602e-17,4.7074013539351623e-17,0.0,0.0,-0.0
1654044359.663553,238,1654044359,662821476,,33.7531051,-80.6446303,-7.043188838942761,1.8362034559249878,0.8527898788452148,-0.2438976913690567,-0.6395169707793319,0.768776982426711,-3.915912056326602e-17,4.7074013539351623e-17,0.0,0.0,-0.0
1654044361.6611605,239,1654044361,660798401,,33.7531051,-80.6446303,-7.043188838942761,1.8362034559249878,0.8527898788452148,-0.2438976913690567,-0.6395169707793319,0.768776982426711,-3.915912056326602e-17,4.7074013539351623e-17,0.0,0.0,-0.0
1654044363.6621184,240,1654044363,661552270,,33.7531051,-80.6446303,-7.043188838942761,1.8362034559249878,0.8527898788452148,-0.2438976913690567,-0.6395169707793319,0.768776982426711,-3.915912056326602e-17,4.7074013539351623e-17,0.0,0.0,-0.0
1654044365.6626642,241,1654044365,662151158,,33.7531051,-80.6446303,-7.043188838942761,1.8362034559249878,0.8527898788452148,-0.2438976913690567,-0.6395169707793319,0.768776982426711,-3.915912056326602e-17,4.7074013539351623e-17,0.0,0.0,-0.0
1654044367.6627471,242,1654044367,661838564,,33.7531093,-80.6446272,-6.943188675263347,2.118053674697876,1.312552809715271,-0.14386828243732452,-0.6505786061001905,0.759438900328857,-3.983645037771725e-17,4.650222092178602e-17,0.0,0.0,-0.0
1654044369.66196,243,1654044369,661506267,,33.7531093,-80.6446272,-6.943188675263347,2.118053674697876,1.312552809715271,-0.14386828243732452,-0.6505786061001905,0.759438900328857,-3.983645037771725e-17,4.650222092178602e-17,0.0,0.0,-0.0
1654044371.6605794,244,1654044371,660154710,,33.7531093,-80.6446272,-6.943188675263347,2.118053674697876,1.312552809715271,-0.14386828243732452,-0.6505786061001905,0.759438900328857,-3.983645037771725e-17,4.650222092178602e-17,0.0,0.0,-0.0
1654044373.6613464,245,1654044373,660890561,,33.7531093,-80.6446272,-6.943188675263347,2.118053674697876,1.312552809715271,-0.14386828243732452,-0.6505786061001905,0.759438900328857,-3.983645037771725e-17,4.650222092178602e-17,0.0,0.0,-0.0
1654044375.6622667,246,1654044375,661630911,,33.7531093,-80.6446272,-6.943188675263347,2.118053674697876,1.312552809715271,-0.14386828243732452,-0.6505786061001905,0.759438900328857,-3.983645037771725e-17,4.650222092178602e-17,0.0,0.0,-0.0
1654044377.66478,247,1654044377,664231743,,33.7531093,-80.6446272,-6.943188675263347,2.118053674697876,1.312552809715271,-0.14386828243732452,0.024920335706430423,0.9996894449059006,1.525930467827864e-18,6.121332394227028e-17,0.0,0.0,-0.0
1654044379.6634116,248,1654044379,662925150,,33.7531093,-80.6446272,-6.943188675263347,2.118053674697876,1.312552809715271,-0.14386828243732452,0.024920335706430423,0.9996894449059006,1.525930467827864e-18,6.121332394227028e-17,0.0,0.0,-0.0
