Time,header.seq,header.stamp.secs,header.stamp.nsecs,header.frame_id,voltage,temperature,current,charge,capacity,design_capacity,percentage,power_supply_status,power_supply_health,power_supply_technology,present,location,serial_number
1654043857.7017043,0,1654043857,701262313,,25.106000900268555,0.0,-0.07999999821186066,nan,nan,nan,1.0,2,0,0,True,,
1654043857.900381,1,1654043857,900002109,,25.10700035095215,0.0,-0.07000000029802322,nan,nan,nan,1.0,2,0,0,True,,
1654043858.1022854,2,1654043858,101916294,,25.107999801635742,0.0,-0.07999999821186066,nan,nan,nan,1.0,2,0,0,True,,
1654043858.30031,3,1654043858,299934312,,25.110000610351562,0.0,-0.09000000357627869,nan,nan,nan,1.0,2,0,0,True,,
1654043858.5021794,4,1654043858,501903571,,25.110000610351562,0.0,-0.07999999821186066,nan,nan,nan,1.0,2,0,0,True,,
1654043858.7032497,5,1654043858,702321942,,25.110000610351562,0.0,-0.07000000029802322,nan,nan,nan,1.0,2,0,0,True,,
1654043858.8141363,6,1654043858,813815923,,25.110000610351562,0.0,-0.07999999821186066,nan,nan,nan,1.0,2,0,3,True,4.184999942779541,4.184999942779541,4.184999942779541,4.184999942779541,4.184999942779541,4.184999942779541,id0,
1654043860.8177307,7,1654043860,817461626,,25.113000869750977,0.0,-0.07000000029802322,nan,nan,nan,1.0,2,0,3,True,4.184999942779541,4.184999942779541,4.184999942779541,4.184999942779541,4.184999942779541,4.184999942779541,id0,
1654043862.8135085,8,1654043862,813169402,,25.11199951171875,0.0,-0.05999999865889549,nan,nan,nan,1.0,2,0,3,True,4.184999942779541,4.184999942779541,4.184999942779541,4.184999942779541,4.184999942779541,4.184999942779541,id0,
1654043864.816157,9,1654043864,815803549,,25.11400032043457,0.0,-0.05000000074505806,nan,nan,nan,1.0,2,0,3,True,4.184999942779541,4.184999942779541,4.184999942779541,4.184999942779541,4.184999942779541,4.184999942779541,id0,
1654043866.8168638,10,1654043866,816512270,,25.115999221801758,0.0,-0.10000000149011612,nan,nan,nan,1.0,2,0,3,True,4.185999870300293,4.185999870300293,4.185999870300293,4.185999870300293,4.185999870300293,4.185999870300293,id0,
1654043868.81658,11,1654043868,816209306,,25.118999481201172,0.0,-0.07000000029802322,nan,nan,nan,1.0,2,0,3,True,4.185999870300293,4.185999870300293,4.185999870300293,4.185999870300293,4.185999870300293,4.185999870300293,id0,
1654043870.813213,12,1654043870,812868212,,25.114999771118164,0.0,-0.05999999865889549,nan,nan,nan,1.0,2,0,3,True,4.184999942779541,4.184999942779541,4.184999942779541,4.184999942779541,4.184999942779541,4.184999942779541,id0,
1654043872.813887,13,1654043872,813562007,,25.11400032043457,0.0,-0.07000000029802322,nan,nan,nan,1.0,2,0,3,True,4.184999942779541,4.184999942779541,4.184999942779541,4.184999942779541,4.184999942779541,4.184999942779541,id0,
1654043874.813499,14,1654043874,813171525,,25.113000869750977,0.0,-0.09000000357627869,nan,nan,nan,1.0,2,0,3,True,4.184999942779541,4.184999942779541,4.184999942779541,4.184999942779541,4.184999942779541,4.184999942779541,id0,
1654043876.8142805,15,1654043876,813911912,,25.113000869750977,0.0,-0.07000000029802322,nan,nan,nan,1.0,2,0,3,True,4.184999942779541,4.184999942779541,4.184999942779541,4.184999942779541,4.184999942779541,4.184999942779541,id0,
1654043878.8168008,16,1654043878,816527115,,25.111000061035156,0.0,-0.05999999865889549,nan,nan,nan,1.0,2,0,3,True,4.184999942779541,4.184999942779541,4.184999942779541,4.184999942779541,4.184999942779541,4.184999942779541,id0,
1654043880.8136575,17,1654043880,813250280,,25.114999771118164,0.0,-0.05999999865889549,nan,nan,nan,1.0,2,0,3,True,4.184999942779541,4.184999942779541,4.184999942779541,4.184999942779541,4.184999942779541,4.184999942779541,id0,
1654043882.8135703,18,1654043882,813020649,,25.11199951171875,0.0,-0.07999999821186066,nan,nan,nan,1.0,2,0,3,True,4.184999942779541,4.184999942779541,4.184999942779541,4.184999942779541,4.184999942779541,4.184999942779541,id0,
1654043884.8139677,19,1654043884,813590019,,25.110000610351562,0.0,-0.05000000074505806,nan,nan,nan,1.0,2,0,3,True,4.184000015258789,4.184000015258789,4.184000015258789,4.184000015258789,4.184000015258789,4.184000015258789,id0,
1654043886.8135726,20,1654043886,813245943,,25.10700035095215,0.0,-0.07000000029802322,nan,nan,nan,1.0,2,0,3,True,4.184000015258789,4.184000015258789,4.184000015258789,4.184000015258789,4.184000015258789,4.184000015258789,id0,
1654043888.817241,21,1654043888,816918646,,25.10700035095215,0.0,-0.07000000029802322,nan,nan,nan,1.0,2,0,3,True,4.184000015258789,4.184000015258789,4.184000015258789,4.184000015258789,4.184000015258789,4.184000015258789,id0,
1654043890.8170645,22,1654043890,816687126,,25.107999801635742,0.0,-0.07999999821186066,nan,nan,nan,1.0,2,0,3,True,4.184000015258789,4.184000015258789,4.184000015258789,4.184000015258789,4.184000015258789,4.184000015258789,id0,
1654043892.8145752,23,1654043892,814253699,,25.108999252319336,0.0,-0.05999999865889549,nan,nan,nan,1.0,2,0,3,True,4.184000015258789,4.184000015258789,4.184000015258789,4.184000015258789,4.184000015258789,4.184000015258789,id0,
1654043894.8142662,24,1654043894,813953753,,25.108999252319336,0.0,-0.05000000074505806,nan,nan,nan,1.0,2,0,3,True,4.184999942779541,4.184999942779541,4.184999942779541,4.184999942779541,4.184999942779541,4.184999942779541,id0,
1654043896.8169224,25,1654043896,816643011,,25.111000061035156,0.0,-0.07999999821186066,nan,nan,nan,1.0,2,0,3,True,4.184999942779541,4.184999942779541,4.184999942779541,4.184999942779541,4.184999942779541,4.184999942779541,id0,
1654043898.8136702,26,1654043898,813331658,,25.107999801635742,0.0,-0.07999999821186066,nan,nan,nan,1.0,2,0,3,True,4.184000015258789,4.184000015258789,4.184000015258789,4.184000015258789,4.184000015258789,4.184000015258789,id0,
1654043900.814316,27,1654043900,813982916,,25.108999252319336,0.0,-0.05999999865889549,nan,nan,nan,1.0,2,0,3,True,4.184000015258789,4.184000015258789,4.184000015258789,4.184000015258789,4.184000015258789,4.184000015258789,id0,
1654043902.8141987,28,1654043902,813695249,,25.10700035095215,0.0,-0.03999999910593033,nan,nan,nan,1.0,2,0,3,True,4.184000015258789,4.184000015258789,4.184000015258789,4.184000015258789,4.184000015258789,4.184000015258789,id0,
1654043904.814768,29,1654043904,814340173,,25.108999252319336,0.0,-0.05000000074505806,nan,nan,nan,1.0,2,0,3,True,4.184000015258789,4.184000015258789,4.184000015258789,4.184000015258789,4.184000015258789,4.184000015258789,id0,
1654043906.8175304,30,1654043906,817076320,,25.111000061035156,0.0,-0.07000000029802322,nan,nan,nan,1.0,2,0,3,True,4.184999942779541,4.184999942779541,4.184999942779541,4.184999942779541,4.184999942779541,4.184999942779541,id0,
1654043908.814197,31,1654043908,813740689,,25.11199951171875,0.0,-0.05000000074505806,nan,nan,nan,1.0,2,0,3,True,4.184999942779541,4.184999942779541,4.184999942779541,4.184999942779541,4.184999942779541,4.184999942779541,id0,
1654043910.8148172,32,1654043910,814355725,,25.108999252319336,0.0,-0.05000000074505806,nan,nan,nan,1.0,2,0,3,True,4.184999942779541,4.184999942779541,4.184999942779541,4.184999942779541,4.184999942779541,4.184999942779541,id0,
1654043912.817535,33,1654043912,817078557,,25.111000061035156,0.0,-0.05999999865889549,nan,nan,nan,1.0,2,0,3,True,4.184999942779541,4.184999942779541,4.184999942779541,4.184999942779541,4.184999942779541,4.184999942779541,id0,
1654043914.817256,34,1654043914,816792093,,25.110000610351562,0.0,-0.05999999865889549,nan,nan,nan,1.0,2,0,3,True,4.184999942779541,4.184999942779541,4.184999942779541,4.184999942779541,4.184999942779541,4.184999942779541,id0,
1654043916.8149436,35,1654043916,814472888,,25.11199951171875,0.0,-0.05000000074505806,nan,nan,nan,1.0,2,0,3,True,4.184999942779541,4.184999942779541,4.184999942779541,4.184999942779541,4.184999942779541,4.184999942779541,id0,
1654043918.8174195,36,1654043918,817087591,,25.10700035095215,0.0,-0.07999999821186066,nan,nan,nan,1.0,2,0,3,True,4.184000015258789,4.184000015258789,4.184000015258789,4.184000015258789,4.184000015258789,4.184000015258789,id0,
1654043920.815065,37,1654043920,814745812,,25.110000610351562,0.0,-0.07999999821186066,nan,nan,nan,1.0,2,0,3,True,4.184999942779541,4.184999942779541,4.184999942779541,4.184999942779541,4.184999942779541,4.184999942779541,id0,
1654043922.8148615,38,1654043922,814435366,,25.111000061035156,0.0,-0.05999999865889549,nan,nan,nan,1.0,2,0,3,True,4.184999942779541,4.184999942779541,4.184999942779541,4.184999942779541,4.184999942779541,4.184999942779541,id0,
1654043924.8145092,39,1654043924,814109143,,25.111000061035156,0.0,-0.05000000074505806,nan,nan,nan,1.0,2,0,3,True,4.184999942779541,4.184999942779541,4.184999942779541,4.184999942779541,4.184999942779541,4.184999942779541,id0,
1654043926.8143117,40,1654043926,813863697,,25.108999252319336,0.0,-0.029999999329447746,nan,nan,nan,1.0,2,0,3,True,4.184000015258789,4.184000015258789,4.184000015258789,4.184000015258789,4.184000015258789,4.184000015258789,id0,
1654043928.8169923,41,1654043928,816541770,,25.110000610351562,0.0,-0.05999999865889549,nan,nan,nan,1.0,2,0,3,True,4.184999942779541,4.184999942779541,4.184999942779541,4.184999942779541,4.184999942779541,4.184999942779541,id0,
1654043930.8145623,42,1654043930,814148047,,25.110000610351562,0.0,-0.07000000029802322,nan,nan,nan,1.0,2,0,3,True,4.184999942779541,4.184999942779541,4.184999942779541,4.184999942779541,4.184999942779541,4.184999942779541,id0,
1654043932.817408,43,1654043932,816897286,,25.110000610351562,0.0,-0.05999999865889549,nan,nan,nan,1.0,2,0,3,True,4.184000015258789,4.184000015258789,4.184000015258789,4.184000015258789,4.184000015258789,4.184000015258789,id0,
1654043934.8179958,44,1654043934,817556378,,25.110000610351562,0.0,-0.05999999865889549,nan,nan,nan,1.0,2,0,3,True,4.184999942779541,4.184999942779541,4.184999942779541,4.184999942779541,4.184999942779541,4.184999942779541,id0,
1654043936.8145738,45,1654043936,814155414,,25.111000061035156,0.0,-0.05999999865889549,nan,nan,nan,1.0,2,0,3,True,4.184999942779541,4.184999942779541,4.184999942779541,4.184999942779541,4.184999942779541,4.184999942779541,id0,
1654043938.8172283,46,1654043938,816874468,,25.104999542236328,0.0,-0.05999999865889549,nan,nan,nan,1.0,2,0,3,True,4.184000015258789,4.184000015258789,4.184000015258789,4.184000015258789,4.184000015258789,4.184000015258789,id0,
1654043940.8148282,47,1654043940,814511948,,25.107999801635742,0.0,-0.05999999865889549,nan,nan,nan,1.0,2,0,3,True,4.184000015258789,4.184000015258789,4.184000015258789,4.184000015258789,4.184000015258789,4.184000015258789,id0,
1654043942.8156302,48,1654043942,815206114,,25.107999801635742,0.0,-0.05999999865889549,nan,nan,nan,1.0,2,0,3,True,4.184000015258789,4.184000015258789,4.184000015258789,4.184000015258789,4.184000015258789,4.184000015258789,id0,
1654043944.81538,49,1654043944,814873316,,25.110000610351562,0.0,-0.09000000357627869,nan,nan,nan,1.0,2,0,3,True,4.184999942779541,4.184999942779541,4.184999942779541,4.184999942779541,4.184999942779541,4.184999942779541,id0,
1654043946.8150287,50,1654043946,814600445,,25.111000061035156,0.0,-0.05999999865889549,nan,nan,nan,1.0,2,0,3,True,4.184999942779541,4.184999942779541,4.184999942779541,4.184999942779541,4.184999942779541,4.184999942779541,id0,
1654043948.8146749,51,1654043948,814230647,,25.11199951171875,0.0,-0.07000000029802322,nan,nan,nan,1.0,2,0,3,True,4.184999942779541,4.184999942779541,4.184999942779541,4.184999942779541,4.184999942779541,4.184999942779541,id0,
1654043950.8143775,52,1654043950,813952535,,25.107999801635742,0.0,-0.05999999865889549,nan,nan,nan,1.0,2,0,3,True,4.184000015258789,4.184000015258789,4.184000015258789,4.184000015258789,4.184000015258789,4.184000015258789,id0,
1654043952.8149865,53,1654043952,814554126,,25.108999252319336,0.0,-0.07000000029802322,nan,nan,nan,1.0,2,0,3,True,4.184000015258789,4.184000015258789,4.184000015258789,4.184000015258789,4.184000015258789,4.184000015258789,id0,
1654043954.8177001,54,1654043954,817288107,,25.107999801635742,0.0,-0.07000000029802322,nan,nan,nan,1.0,2,0,3,True,4.184000015258789,4.184000015258789,4.184000015258789,4.184000015258789,4.184000015258789,4.184000015258789,id0,
1654043956.8154092,55,1654043956,814932828,,25.108999252319336,0.0,-0.05999999865889549,nan,nan,nan,1.0,2,0,3,True,4.184000015258789,4.184000015258789,4.184000015258789,4.184000015258789,4.184000015258789,4.184000015258789,id0,
1654043958.8160393,56,1654043958,815612141,,25.110000610351562,0.0,-0.05999999865889549,nan,nan,nan,1.0,2,0,3,True,4.184999942779541,4.184999942779541,4.184999942779541,4.184999942779541,4.184999942779541,4.184999942779541,id0,
1654043960.8177006,57,1654043960,817319658,,25.111000061035156,0.0,-0.05000000074505806,nan,nan,nan,1.0,2,0,3,True,4.184999942779541,4.184999942779541,4.184999942779541,4.184999942779541,4.184999942779541,4.184999942779541,id0,
1654043962.8154626,58,1654043962,815008898,,25.108999252319336,0.0,-0.05999999865889549,nan,nan,nan,1.0,2,0,3,True,4.184000015258789,4.184000015258789,4.184000015258789,4.184000015258789,4.184000015258789,4.184000015258789,id0,
1654043964.816067,59,1654043964,815646360,,25.108999252319336,0.0,-0.07000000029802322,nan,nan,nan,1.0,2,0,3,True,4.184000015258789,4.184000015258789,4.184000015258789,4.184000015258789,4.184000015258789,4.184000015258789,id0,
1654043966.8187459,60,1654043966,818328451,,25.106000900268555,0.0,-0.03999999910593033,nan,nan,nan,1.0,2,0,3,True,4.184000015258789,4.184000015258789,4.184000015258789,4.184000015258789,4.184000015258789,4.184000015258789,id0,
1654043968.818425,61,1654043968,818010672,,25.107999801635742,0.0,-0.05999999865889549,nan,nan,nan,1.0,2,0,3,True,4.184000015258789,4.184000015258789,4.184000015258789,4.184000015258789,4.184000015258789,4.184000015258789,id0,
1654043970.8151057,62,1654043970,814683208,,25.110000610351562,0.0,-0.05999999865889549,nan,nan,nan,1.0,2,0,3,True,4.184999942779541,4.184999942779541,4.184999942779541,4.184999942779541,4.184999942779541,4.184999942779541,id0,
1654043972.8157268,63,1654043972,815313948,,25.11199951171875,0.0,-0.07000000029802322,nan,nan,nan,1.0,2,0,3,True,4.184999942779541,4.184999942779541,4.184999942779541,4.184999942779541,4.184999942779541,4.184999942779541,id0,
1654043974.8155668,64,1654043974,815115132,,25.110000610351562,0.0,-0.05999999865889549,nan,nan,nan,1.0,2,0,3,True,4.184999942779541,4.184999942779541,4.184999942779541,4.184999942779541,4.184999942779541,4.184999942779541,id0,
1654043976.8181872,65,1654043976,817744538,,25.110000610351562,0.0,-0.03999999910593033,nan,nan,nan,1.0,2,0,3,True,4.184999942779541,4.184999942779541,4.184999942779541,4.184999942779541,4.184999942779541,4.184999942779541,id0,
1654043978.815808,66,1654043978,815352759,,25.108999252319336,0.0,-0.05000000074505806,nan,nan,nan,1.0,2,0,3,True,4.184000015258789,4.184000015258789,4.184000015258789,4.184000015258789,4.184000015258789,4.184000015258789,id0,
1654043980.815465,67,1654043980,815040017,,25.110000610351562,0.0,-0.05000000074505806,nan,nan,nan,1.0,2,0,3,True,4.184000015258789,4.184000015258789,4.184000015258789,4.184000015258789,4.184000015258789,4.184000015258789,id0,
1654043982.8182657,68,1654043982,817813942,,25.107999801635742,0.0,-0.05000000074505806,nan,nan,nan,1.0,2,0,3,True,4.184000015258789,4.184000015258789,4.184000015258789,4.184000015258789,4.184000015258789,4.184000015258789,id0,
1654043984.8158903,69,1654043984,815435589,,25.111000061035156,0.0,-0.05999999865889549,nan,nan,nan,1.0,2,0,3,True,4.184999942779541,4.184999942779541,4.184999942779541,4.184999942779541,4.184999942779541,4.184999942779541,id0,
1654043986.8187964,70,1654043986,818096328,,25.11199951171875,0.0,-0.07000000029802322,nan,nan,nan,1.0,2,0,3,True,4.184999942779541,4.184999942779541,4.184999942779541,4.184999942779541,4.184999942779541,4.184999942779541,id0,
1654043988.815112,71,1654043988,814742383,,25.11199951171875,0.0,-0.07000000029802322,nan,nan,nan,1.0,2,0,3,True,4.184999942779541,4.184999942779541,4.184999942779541,4.184999942779541,4.184999942779541,4.184999942779541,id0,
1654043990.8157113,72,1654043990,815389252,,25.107999801635742,0.0,-0.05999999865889549,nan,nan,nan,1.0,2,0,3,True,4.184000015258789,4.184000015258789,4.184000015258789,4.184000015258789,4.184000015258789,4.184000015258789,id0,
1654043992.8183954,73,1654043992,818103028,,25.107999801635742,0.0,-0.05000000074505806,nan,nan,nan,1.0,2,0,3,True,4.184000015258789,4.184000015258789,4.184000015258789,4.184000015258789,4.184000015258789,4.184000015258789,id0,
1654043994.8181741,74,1654043994,817810842,,25.108999252319336,0.0,-0.05999999865889549,nan,nan,nan,1.0,2,0,3,True,4.184000015258789,4.184000015258789,4.184000015258789,4.184000015258789,4.184000015258789,4.184000015258789,id0,
1654043996.815963,75,1654043996,815501322,,25.110000610351562,0.0,-0.05000000074505806,nan,nan,nan,1.0,2,0,3,True,4.184000015258789,4.184000015258789,4.184000015258789,4.184000015258789,4.184000015258789,4.184000015258789,id0,
1654043998.8186824,76,1654043998,818209821,,25.110000610351562,0.0,-0.05000000074505806,nan,nan,nan,1.0,2,0,3,True,4.184999942779541,4.184999942779541,4.184999942779541,4.184999942779541,4.184999942779541,4.184999942779541,id0,
1654044000.818397,77,1654044000,817897246,,25.111000061035156,0.0,-0.05999999865889549,nan,nan,nan,1.0,2,0,3,True,4.184999942779541,4.184999942779541,4.184999942779541,4.184999942779541,4.184999942779541,4.184999942779541,id0,
1654044002.8178947,78,1654044002,817519115,,25.110000610351562,0.0,-0.05999999865889549,nan,nan,nan,1.0,2,0,3,True,4.184999942779541,4.184999942779541,4.184999942779541,4.184999942779541,4.184999942779541,4.184999942779541,id0,
1654044004.8156252,79,1654044004,815204669,,25.110000610351562,0.0,-0.05999999865889549,nan,nan,nan,1.0,2,0,3,True,4.184000015258789,4.184000015258789,4.184000015258789,4.184000015258789,4.184000015258789,4.184000015258789,id0,
1654044006.8182642,80,1654044006,817885853,,25.107999801635742,0.0,-0.05999999865889549,nan,nan,nan,1.0,2,0,3,True,4.184000015258789,4.184000015258789,4.184000015258789,4.184000015258789,4.184000015258789,4.184000015258789,id0,
1654044008.8159037,81,1654044008,815479241,,25.107999801635742,0.0,-0.05999999865889549,nan,nan,nan,1.0,2,0,3,True,4.184000015258789,4.184000015258789,4.184000015258789,4.184000015258789,4.184000015258789,4.184000015258789,id0,
1654044010.818699,82,1654044010,818253832,,25.110000610351562,0.0,-0.05999999865889549,nan,nan,nan,1.0,2,0,3,True,4.184999942779541,4.184999942779541,4.184999942779541,4.184999942779541,4.184999942779541,4.184999942779541,id0,
1654044012.8153186,83,1654044012,814896128,,25.113000869750977,0.0,-0.05999999865889549,nan,nan,nan,1.0,2,0,3,True,4.184999942779541,4.184999942779541,4.184999942779541,4.184999942779541,4.184999942779541,4.184999942779541,id0,
1654044014.8159904,84,1654044014,815528219,,25.110000610351562,0.0,-0.05000000074505806,nan,nan,nan,1.0,2,0,3,True,4.184999942779541,4.184999942779541,4.184999942779541,4.184999942779541,4.184999942779541,4.184999942779541,id0,
1654044016.8156743,85,1654044016,815212051,,25.111000061035156,0.0,-0.05999999865889549,nan,nan,nan,1.0,2,0,3,True,4.184999942779541,4.184999942779541,4.184999942779541,4.184999942779541,4.184999942779541,4.184999942779541,id0,
1654044018.816323,86,1654044018,815857309,,25.108999252319336,0.0,-0.05999999865889549,nan,nan,nan,1.0,2,0,3,True,4.184999942779541,4.184999942779541,4.184999942779541,4.184999942779541,4.184999942779541,4.184999942779541,id0,
1654044020.8189933,87,1654044020,818593882,,25.108999252319336,0.0,-0.05000000074505806,nan,nan,nan,1.0,2,0,3,True,4.184000015258789,4.184000015258789,4.184000015258789,4.184000015258789,4.184000015258789,4.184000015258789,id0,
1654044022.8186395,88,1654044022,818274733,,25.108999252319336,0.0,-0.05000000074505806,nan,nan,nan,1.0,2,0,3,True,4.184000015258789,4.184000015258789,4.184000015258789,4.184000015258789,4.184000015258789,4.184000015258789,id0,
1654044024.8154778,89,1654044024,814988287,,25.107999801635742,0.0,-0.05000000074505806,nan,nan,nan,1.0,2,0,3,True,4.184000015258789,4.184000015258789,4.184000015258789,4.184000015258789,4.184000015258789,4.184000015258789,id0,
1654044026.816101,90,1654044026,815648027,,25.111000061035156,0.0,-0.07000000029802322,nan,nan,nan,1.0,2,0,3,True,4.184999942779541,4.184999942779541,4.184999942779541,4.184999942779541,4.184999942779541,4.184999942779541,id0,
1654044028.8187373,91,1654044028,818329748,,25.111000061035156,0.0,-0.05999999865889549,nan,nan,nan,1.0,2,0,3,True,4.184999942779541,4.184999942779541,4.184999942779541,4.184999942779541,4.184999942779541,4.184999942779541,id0,
1654044030.8164716,92,1654044030,815959006,,25.107999801635742,0.0,-0.03999999910593033,nan,nan,nan,1.0,2,0,3,True,4.184000015258789,4.184000015258789,4.184000015258789,4.184000015258789,4.184000015258789,4.184000015258789,id0,
1654044032.819009,93,1654044032,818638338,,25.107999801635742,0.0,-0.05999999865889549,nan,nan,nan,1.0,2,0,3,True,4.184000015258789,4.184000015258789,4.184000015258789,4.184000015258789,4.184000015258789,4.184000015258789,id0,
1654044034.8187492,94,1654044034,818343485,,25.107999801635742,0.0,-0.07000000029802322,nan,nan,nan,1.0,2,0,3,True,4.184000015258789,4.184000015258789,4.184000015258789,4.184000015258789,4.184000015258789,4.184000015258789,id0,
1654044036.815534,95,1654044036,815056687,,25.108999252319336,0.0,-0.05999999865889549,nan,nan,nan,1.0,2,0,3,True,4.184000015258789,4.184000015258789,4.184000015258789,4.184000015258789,4.184000015258789,4.184000015258789,id0,
1654044038.8161483,96,1654044038,815729723,,25.108999252319336,0.0,-0.05999999865889549,nan,nan,nan,1.0,2,0,3,True,4.184000015258789,4.184000015258789,4.184000015258789,4.184000015258789,4.184000015258789,4.184000015258789,id0,
1654044040.8190448,97,1654044040,818387852,,25.111000061035156,0.0,-0.05000000074505806,nan,nan,nan,1.0,2,0,3,True,4.184999942779541,4.184999942779541,4.184999942779541,4.184999942779541,4.184999942779541,4.184999942779541,id0,
1654044042.8155298,98,1654044042,815072517,,25.111000061035156,0.0,-0.07000000029802322,nan,nan,nan,1.0,2,0,3,True,4.184999942779541,4.184999942779541,4.184999942779541,4.184999942779541,4.184999942779541,4.184999942779541,id0,
1654044044.8191981,99,1654044044,818730775,,25.111000061035156,0.0,-0.07000000029802322,nan,nan,nan,1.0,2,0,3,True,4.184999942779541,4.184999942779541,4.184999942779541,4.184999942779541,4.184999942779541,4.184999942779541,id0,
1654044046.8159108,100,1654044046,815397515,,25.107999801635742,0.0,-0.05000000074505806,nan,nan,nan,1.0,2,0,3,True,4.184000015258789,4.184000015258789,4.184000015258789,4.184000015258789,4.184000015258789,4.184000015258789,id0,
1654044048.8164785,101,1654044048,816049495,,25.111000061035156,0.0,-0.03999999910593033,nan,nan,nan,1.0,2,0,3,True,4.184999942779541,4.184999942779541,4.184999942779541,4.184999942779541,4.184999942779541,4.184999942779541,id0,
1654044050.81616,102,1654044050,815731734,,25.111000061035156,0.0,-0.05000000074505806,nan,nan,nan,1.0,2,0,3,True,4.184999942779541,4.184999942779541,4.184999942779541,4.184999942779541,4.184999942779541,4.184999942779541,id0,
1654044052.8159335,103,1654044052,815448567,,25.113000869750977,0.0,-0.03999999910593033,nan,nan,nan,1.0,2,0,3,True,4.184999942779541,4.184999942779541,4.184999942779541,4.184999942779541,4.184999942779541,4.184999942779541,id0,
1654044054.8186486,104,1654044054,818185010,,25.11199951171875,0.0,-0.05999999865889549,nan,nan,nan,1.0,2,0,3,True,4.184999942779541,4.184999942779541,4.184999942779541,4.184999942779541,4.184999942779541,4.184999942779541,id0,
1654044056.818179,105,1654044056,817814268,,25.110000610351562,0.0,-0.05000000074505806,nan,nan,nan,1.0,2,0,3,True,4.184999942779541,4.184999942779541,4.184999942779541,4.184999942779541,4.184999942779541,4.184999942779541,id0,
1654044058.8166828,106,1654044058,816364748,,25.107999801635742,0.0,-0.07999999821186066,nan,nan,nan,1.0,2,0,3,True,4.184000015258789,4.184000015258789,4.184000015258789,4.184000015258789,4.184000015258789,4.184000015258789,id0,
1654044060.8165166,107,1654044060,816096191,,25.107999801635742,0.0,-0.05999999865889549,nan,nan,nan,1.0,2,0,3,True,4.184000015258789,4.184000015258789,4.184000015258789,4.184000015258789,4.184000015258789,4.184000015258789,id0,
1654044062.8193994,108,1654044062,818909394,,25.108999252319336,0.0,-0.05999999865889549,nan,nan,nan,1.0,2,0,3,True,4.184999942779541,4.184999942779541,4.184999942779541,4.184999942779541,4.184999942779541,4.184999942779541,id0,
1654044064.8168924,109,1654044064,816460726,,25.111000061035156,0.0,-0.05000000074505806,nan,nan,nan,1.0,2,0,3,True,4.184999942779541,4.184999942779541,4.184999942779541,4.184999942779541,4.184999942779541,4.184999942779541,id0,
1654044066.8165574,110,1654044066,816131910,,25.11199951171875,0.0,-0.05999999865889549,nan,nan,nan,1.0,2,0,3,True,4.184999942779541,4.184999942779541,4.184999942779541,4.184999942779541,4.184999942779541,4.184999942779541,id0,
1654044068.819275,111,1654044068,818878502,,25.11199951171875,0.0,-0.05000000074505806,nan,nan,nan,1.0,2,0,3,True,4.184999942779541,4.184999942779541,4.184999942779541,4.184999942779541,4.184999942779541,4.184999942779541,id0,
1654044070.8170016,112,1654044070,816522186,,25.110000610351562,0.0,-0.05999999865889549,nan,nan,nan,1.0,2,0,3,True,4.184999942779541,4.184999942779541,4.184999942779541,4.184999942779541,4.184999942779541,4.184999942779541,id0,
1654044072.816669,113,1654044072,816246425,,25.108999252319336,0.0,-0.05000000074505806,nan,nan,nan,1.0,2,0,3,True,4.184000015258789,4.184000015258789,4.184000015258789,4.184000015258789,4.184000015258789,4.184000015258789,id0,
1654044074.8192513,114,1654044074,818894979,,25.110000610351562,0.0,-0.07000000029802322,nan,nan,nan,1.0,2,0,3,True,4.184999942779541,4.184999942779541,4.184999942779541,4.184999942779541,4.184999942779541,4.184999942779541,id0,
1654044076.8160446,115,1654044076,815577497,,25.108999252319336,0.0,-0.05000000074505806,nan,nan,nan,1.0,2,0,3,True,4.184000015258789,4.184000015258789,4.184000015258789,4.184000015258789,4.184000015258789,4.184000015258789,id0,
1654044078.81968,116,1654044078,819248533,,25.107999801635742,0.0,-0.05999999865889549,nan,nan,nan,1.0,2,0,3,True,4.184000015258789,4.184000015258789,4.184000015258789,4.184000015258789,4.184000015258789,4.184000015258789,id0,
1654044080.8174758,117,1654044080,816936013,,25.111000061035156,0.0,-0.07000000029802322,nan,nan,nan,1.0,2,0,3,True,4.184999942779541,4.184999942779541,4.184999942779541,4.184999942779541,4.184999942779541,4.184999942779541,id0,
1654044082.8191476,118,1654044082,818677789,,25.110000610351562,0.0,-0.05999999865889549,nan,nan,nan,1.0,2,0,3,True,4.184999942779541,4.184999942779541,4.184999942779541,4.184999942779541,4.184999942779541,4.184999942779541,id0,
1654044084.8167903,119,1654044084,816330381,,25.111000061035156,0.0,-0.07000000029802322,nan,nan,nan,1.0,2,0,3,True,4.184999942779541,4.184999942779541,4.184999942779541,4.184999942779541,4.184999942779541,4.184999942779541,id0,
1654044086.8193834,120,1654044086,819013528,,25.107999801635742,0.0,-0.05999999865889549,nan,nan,nan,1.0,2,0,3,True,4.184000015258789,4.184000015258789,4.184000015258789,4.184000015258789,4.184000015258789,4.184000015258789,id0,
1654044088.8160813,121,1654044088,815634638,,25.107999801635742,0.0,-0.05999999865889549,nan,nan,nan,1.0,2,0,3,True,4.184000015258789,4.184000015258789,4.184000015258789,4.184000015258789,4.184000015258789,4.184000015258789,id0,
1654044090.8167725,122,1654044090,816343007,,25.110000610351562,0.0,-0.05999999865889549,nan,nan,nan,1.0,2,0,3,True,4.184999942779541,4.184999942779541,4.184999942779541,4.184999942779541,4.184999942779541,4.184999942779541,id0,
1654044092.8175607,123,1654044092,817011098,,25.11400032043457,0.0,-0.07000000029802322,nan,nan,nan,1.0,2,0,3,True,4.184999942779541,4.184999942779541,4.184999942779541,4.184999942779541,4.184999942779541,4.184999942779541,id0,
1654044094.8202107,124,1654044094,819771079,,25.111000061035156,0.0,-0.05000000074505806,nan,nan,nan,1.0,2,0,3,True,4.184999942779541,4.184999942779541,4.184999942779541,4.184999942779541,4.184999942779541,4.184999942779541,id0,
1654044096.8158562,125,1654044096,815393392,,25.110000610351562,0.0,-0.05000000074505806,nan,nan,nan,1.0,2,0,3,True,4.184999942779541,4.184999942779541,4.184999942779541,4.184999942779541,4.184999942779541,4.184999942779541,id0,
1654044098.8194947,126,1654044098,819047206,,25.108999252319336,0.0,-0.05000000074505806,nan,nan,nan,1.0,2,0,3,True,4.184000015258789,4.184000015258789,4.184000015258789,4.184000015258789,4.184000015258789,4.184000015258789,id0,
1654044100.816231,127,1654044100,815787427,,25.111000061035156,0.0,-0.05000000074505806,nan,nan,nan,1.0,2,0,3,True,4.184999942779541,4.184999942779541,4.184999942779541,4.184999942779541,4.184999942779541,4.184999942779541,id0,
1654044102.8169434,128,1654044102,816469426,,25.108999252319336,0.0,-0.05000000074505806,nan,nan,nan,1.0,2,0,3,True,4.184999942779541,4.184999942779541,4.184999942779541,4.184999942779541,4.184999942779541,4.184999942779541,id0,
1654044104.8164523,129,1654044104,816023480,,25.111000061035156,0.0,-0.05000000074505806,nan,nan,nan,1.0,2,0,3,True,4.184999942779541,4.184999942779541,4.184999942779541,4.184999942779541,4.184999942779541,4.184999942779541,id0,
1654044106.8172808,130,1654044106,816777053,,25.113000869750977,0.0,-0.05999999865889549,nan,nan,nan,1.0,2,0,3,True,4.184999942779541,4.184999942779541,4.184999942779541,4.184999942779541,4.184999942779541,4.184999942779541,id0,
1654044108.8179698,131,1654044108,817442755,,25.113000869750977,0.0,-0.05999999865889549,nan,nan,nan,1.0,2,0,3,True,4.184999942779541,4.184999942779541,4.184999942779541,4.184999942779541,4.184999942779541,4.184999942779541,id0,
1654044110.8176093,132,1654044110,817170199,,25.11199951171875,0.0,-0.05000000074505806,nan,nan,nan,1.0,2,0,3,True,4.184999942779541,4.184999942779541,4.184999942779541,4.184999942779541,4.184999942779541,4.184999942779541,id0,
1654044112.8162575,133,1654044112,815829346,,25.111000061035156,0.0,-0.07000000029802322,nan,nan,nan,1.0,2,0,3,True,4.184999942779541,4.184999942779541,4.184999942779541,4.184999942779541,4.184999942779541,4.184999942779541,id0,
1654044114.819905,134,1654044114,819488641,,25.110000610351562,0.0,-0.03999999910593033,nan,nan,nan,1.0,2,0,3,True,4.184999942779541,4.184999942779541,4.184999942779541,4.184999942779541,4.184999942779541,4.184999942779541,id0,
1654044116.8165362,135,1654044116,816112732,,25.113000869750977,0.0,-0.09000000357627869,nan,nan,nan,1.0,2,0,3,True,4.184999942779541,4.184999942779541,4.184999942779541,4.184999942779541,4.184999942779541,4.184999942779541,id0,
1654044118.8172631,136,1654044118,816833324,,25.113000869750977,0.0,-0.05000000074505806,nan,nan,nan,1.0,2,0,3,True,4.184999942779541,4.184999942779541,4.184999942779541,4.184999942779541,4.184999942779541,4.184999942779541,id0,
1654044120.8189802,137,1654044120,818543952,,25.113000869750977,0.0,-0.05999999865889549,nan,nan,nan,1.0,2,0,3,True,4.184999942779541,4.184999942779541,4.184999942779541,4.184999942779541,4.184999942779541,4.184999942779541,id0,
1654044122.8174465,138,1654044122,817087562,,25.11199951171875,0.0,-0.05000000074505806,nan,nan,nan,1.0,2,0,3,True,4.184999942779541,4.184999942779541,4.184999942779541,4.184999942779541,4.184999942779541,4.184999942779541,id0,
1654044124.8181217,139,1654044124,817787246,,25.111000061035156,0.0,-0.05999999865889549,nan,nan,nan,1.0,2,0,3,True,4.184999942779541,4.184999942779541,4.184999942779541,4.184999942779541,4.184999942779541,4.184999942779541,id0,
1654044126.8177953,140,1654044126,817457745,,25.110000610351562,0.0,-0.05000000074505806,nan,nan,nan,1.0,2,0,3,True,4.184999942779541,4.184999942779541,4.184999942779541,4.184999942779541,4.184999942779541,4.184999942779541,id0,
1654044128.8197067,141,1654044128,819268984,,25.110000610351562,0.0,-0.05000000074505806,nan,nan,nan,1.0,2,0,3,True,4.184999942779541,4.184999942779541,4.184999942779541,4.184999942779541,4.184999942779541,4.184999942779541,id0,
1654044130.8183155,142,1654044130,817843668,,25.11199951171875,0.0,-0.07000000029802322,nan,nan,nan,1.0,2,0,3,True,4.184999942779541,4.184999942779541,4.184999942779541,4.184999942779541,4.184999942779541,4.184999942779541,id0,
1654044132.8178349,143,1654044132,817496834,,25.114999771118164,0.0,-0.07999999821186066,nan,nan,nan,1.0,2,0,3,True,4.184999942779541,4.184999942779541,4.184999942779541,4.184999942779541,4.184999942779541,4.184999942779541,id0,
1654044134.8175573,144,1654044134,817224296,,25.111000061035156,0.0,-0.03999999910593033,nan,nan,nan,1.0,2,0,3,True,4.184999942779541,4.184999942779541,4.184999942779541,4.184999942779541,4.184999942779541,4.184999942779541,id0,
1654044136.8203597,145,1654044136,819934924,,25.111000061035156,0.0,-0.05000000074505806,nan,nan,nan,1.0,2,0,3,True,4.184999942779541,4.184999942779541,4.184999942779541,4.184999942779541,4.184999942779541,4.184999942779541,id0,
1654044138.817026,146,1654044138,816591497,,25.111000061035156,0.0,-0.03999999910593033,nan,nan,nan,1.0,2,0,3,True,4.184999942779541,4.184999942779541,4.184999942779541,4.184999942779541,4.184999942779541,4.184999942779541,id0,
1654044140.8177505,147,1654044140,817323662,,25.113000869750977,0.0,-0.05000000074505806,nan,nan,nan,1.0,2,0,3,True,4.184999942779541,4.184999942779541,4.184999942779541,4.184999942779541,4.184999942779541,4.184999942779541,id0,
1654044142.8203259,148,1654044142,819933643,,25.11199951171875,0.0,-0.05000000074505806,nan,nan,nan,1.0,2,0,3,True,4.184999942779541,4.184999942779541,4.184999942779541,4.184999942779541,4.184999942779541,4.184999942779541,id0,
1654044144.81803,149,1654044144,817592956,,25.11199951171875,0.0,-0.05000000074505806,nan,nan,nan,1.0,2,0,3,True,4.184999942779541,4.184999942779541,4.184999942779541,4.184999942779541,4.184999942779541,4.184999942779541,id0,
1654044146.8198168,150,1654044146,819359474,,25.113000869750977,0.0,-0.05000000074505806,nan,nan,nan,1.0,2,0,3,True,4.184999942779541,4.184999942779541,4.184999942779541,4.184999942779541,4.184999942779541,4.184999942779541,id0,
1654044148.8212695,151,1654044148,820946028,,25.11400032043457,0.0,-0.05000000074505806,nan,nan,nan,1.0,2,0,3,True,4.184999942779541,4.184999942779541,4.184999942779541,4.184999942779541,4.184999942779541,4.184999942779541,id0,
1654044150.8198981,152,1654044150,819637527,,25.111000061035156,0.0,-0.05000000074505806,nan,nan,nan,1.0,2,0,3,True,4.184999942779541,4.184999942779541,4.184999942779541,4.184999942779541,4.184999942779541,4.184999942779541,id0,
1654044152.8196623,153,1654044152,819329822,,25.110000610351562,0.0,-0.05000000074505806,nan,nan,nan,1.0,2,0,3,True,4.184999942779541,4.184999942779541,4.184999942779541,4.184999942779541,4.184999942779541,4.184999942779541,id0,
1654044154.8204827,154,1654044154,820038858,,25.11199951171875,0.0,-0.07000000029802322,nan,nan,nan,1.0,2,0,3,True,4.184999942779541,4.184999942779541,4.184999942779541,4.184999942779541,4.184999942779541,4.184999942779541,id0,
1654044156.8200915,155,1654044156,819713819,,25.114999771118164,0.0,-0.05000000074505806,nan,nan,nan,1.0,2,0,3,True,4.184999942779541,4.184999942779541,4.184999942779541,4.184999942779541,4.184999942779541,4.184999942779541,id0,
1654044158.8186362,156,1654044158,818310263,,25.11400032043457,0.0,-0.03999999910593033,nan,nan,nan,1.0,2,0,3,True,4.184999942779541,4.184999942779541,4.184999942779541,4.184999942779541,4.184999942779541,4.184999942779541,id0,
1654044160.817358,157,1654044160,817002799,,25.11400032043457,0.0,-0.05000000074505806,nan,nan,nan,1.0,2,0,3,True,4.184999942779541,4.184999942779541,4.184999942779541,4.184999942779541,4.184999942779541,4.184999942779541,id0,
1654044162.8200445,158,1654044162,819763057,,25.11199951171875,0.0,-0.05999999865889549,nan,nan,nan,1.0,2,0,3,True,4.184999942779541,4.184999942779541,4.184999942779541,4.184999942779541,4.184999942779541,4.184999942779541,id0,
1654044164.819858,159,1654044164,819437315,,25.113000869750977,0.0,-0.05999999865889549,nan,nan,nan,1.0,2,0,3,True,4.184999942779541,4.184999942779541,4.184999942779541,4.184999942779541,4.184999942779541,4.184999942779541,id0,
1654044166.817577,160,1654044166,817143017,,25.113000869750977,0.0,-0.05999999865889549,nan,nan,nan,1.0,2,0,3,True,4.184999942779541,4.184999942779541,4.184999942779541,4.184999942779541,4.184999942779541,4.184999942779541,id0,
1654044168.8182514,161,1654044168,817804997,,25.11400032043457,0.0,-0.03999999910593033,nan,nan,nan,1.0,2,0,3,True,4.184999942779541,4.184999942779541,4.184999942779541,4.184999942779541,4.184999942779541,4.184999942779541,id0,
1654044170.8188417,162,1654044170,818409200,,25.11400032043457,0.0,-0.03999999910593033,nan,nan,nan,1.0,2,0,3,True,4.184999942779541,4.184999942779541,4.184999942779541,4.184999942779541,4.184999942779541,4.184999942779541,id0,
1654044172.8175275,163,1654044172,817069940,,25.118000030517578,0.0,-0.05999999865889549,nan,nan,nan,1.0,2,0,3,True,4.185999870300293,4.185999870300293,4.185999870300293,4.185999870300293,4.185999870300293,4.185999870300293,id0,
1654044174.818184,164,1654044174,817753716,,25.114999771118164,0.0,-0.05999999865889549,nan,nan,nan,1.0,2,0,3,True,4.184999942779541,4.184999942779541,4.184999942779541,4.184999942779541,4.184999942779541,4.184999942779541,id0,
1654044176.8189025,165,1654044176,818472585,,25.11400032043457,0.0,-0.05999999865889549,nan,nan,nan,1.0,2,0,3,True,4.184999942779541,4.184999942779541,4.184999942779541,4.184999942779541,4.184999942779541,4.184999942779541,id0,
1654044178.8185523,166,1654044178,818115621,,25.11400032043457,0.0,-0.05999999865889549,nan,nan,nan,1.0,2,0,3,True,4.184999942779541,4.184999942779541,4.184999942779541,4.184999942779541,4.184999942779541,4.184999942779541,id0,
1654044180.8173273,167,1654044180,816868990,,25.114999771118164,0.0,-0.07000000029802322,nan,nan,nan,1.0,2,0,3,True,4.184999942779541,4.184999942779541,4.184999942779541,4.184999942779541,4.184999942779541,4.184999942779541,id0,
1654044182.8188982,168,1654044182,818463267,,25.115999221801758,0.0,-0.09000000357627869,nan,nan,nan,1.0,2,0,3,True,4.185999870300293,4.185999870300293,4.185999870300293,4.185999870300293,4.185999870300293,4.185999870300293,id0,
1654044184.8176734,169,1654044184,817217673,,25.05699920654297,0.0,-3.490000009536743,nan,nan,nan,1.0,2,0,3,True,4.175000190734863,4.175000190734863,4.175000190734863,4.175000190734863,4.175000190734863,4.175000190734863,id0,
1654044186.818162,170,1654044186,817839616,,25.06399917602539,0.0,-0.699999988079071,nan,nan,nan,1.0,2,0,3,True,4.177000045776367,4.177000045776367,4.177000045776367,4.177000045776367,4.177000045776367,4.177000045776367,id0,
1654044188.8210258,171,1654044188,820534041,,25.048999786376953,0.0,-3.240000009536743,nan,nan,nan,1.0,2,0,3,True,4.173999786376953,4.173999786376953,4.173999786376953,4.173999786376953,4.173999786376953,4.173999786376953,id0,
1654044190.8175955,172,1654044190,817226207,,25.062000274658203,0.0,-0.6600000262260437,nan,nan,nan,1.0,2,0,3,True,4.177000045776367,4.177000045776367,4.177000045776367,4.177000045776367,4.177000045776367,4.177000045776367,id0,
1654044192.8183846,173,1654044192,817899909,,25.097000122070312,0.0,-0.05999999865889549,nan,nan,nan,1.0,2,0,3,True,4.183000087738037,4.183000087738037,4.183000087738037,4.183000087738037,4.183000087738037,4.183000087738037,id0,
1654044194.8209636,174,1654044194,820589389,,25.100000381469727,0.0,-0.03999999910593033,nan,nan,nan,1.0,2,0,3,True,4.183000087738037,4.183000087738037,4.183000087738037,4.183000087738037,4.183000087738037,4.183000087738037,id0,
1654044196.8177187,175,1654044196,817255407,,25.108999252319336,0.0,-0.05000000074505806,nan,nan,nan,1.0,2,0,3,True,4.184000015258789,4.184000015258789,4.184000015258789,4.184000015258789,4.184000015258789,4.184000015258789,id0,
1654044198.8204296,176,1654044198,819998906,,25.110000610351562,0.0,-0.07999999821186066,nan,nan,nan,1.0,2,0,3,True,4.184999942779541,4.184999942779541,4.184999942779541,4.184999942779541,4.184999942779541,4.184999942779541,id0,
1654044200.8181026,177,1654044200,817675423,,25.11199951171875,0.0,-0.07999999821186066,nan,nan,nan,1.0,2,0,3,True,4.184999942779541,4.184999942779541,4.184999942779541,4.184999942779541,4.184999942779541,4.184999942779541,id0,
1654044202.8176959,178,1654044202,817280385,,25.113000869750977,0.0,-0.05999999865889549,nan,nan,nan,1.0,2,0,3,True,4.184999942779541,4.184999942779541,4.184999942779541,4.184999942779541,4.184999942779541,4.184999942779541,id0,
1654044204.820525,179,1654044204,820066291,,25.11400032043457,0.0,-0.07999999821186066,nan,nan,nan,1.0,2,0,3,True,4.184999942779541,4.184999942779541,4.184999942779541,4.184999942779541,4.184999942779541,4.184999942779541,id0,
1654044206.8192797,180,1654044206,818797067,,25.069000244140625,0.0,-3.259999990463257,nan,nan,nan,1.0,2,0,3,True,4.177000045776367,4.177000045776367,4.177000045776367,4.177000045776367,4.177000045776367,4.177000045776367,id0,
1654044208.8199768,181,1654044208,819513437,,25.023000717163086,0.0,-3.5299999713897705,nan,nan,nan,1.0,2,0,3,True,4.170000076293945,4.170000076293945,4.170000076293945,4.170000076293945,4.170000076293945,4.170000076293945,id0,
1654044210.8195653,182,1654044210,819103935,,25.013999938964844,0.0,-3.559999942779541,nan,nan,nan,1.0,2,0,3,True,4.169000148773193,4.169000148773193,4.169000148773193,4.169000148773193,4.169000148773193,4.169000148773193,id0,
1654044212.820053,183,1654044212,819720786,,25.069000244140625,0.0,-0.25,nan,nan,nan,1.0,2,0,3,True,4.177999973297119,4.177999973297119,4.177999973297119,4.177999973297119,4.177999973297119,4.177999973297119,id0,
1654044214.8196468,184,1654044214,819370877,,25.094999313354492,0.0,-0.03999999910593033,nan,nan,nan,1.0,2,0,3,True,4.182000160217285,4.182000160217285,4.182000160217285,4.182000160217285,4.182000160217285,4.182000160217285,id0,
1654044216.8194485,185,1654044216,819066376,,25.097999572753906,0.0,-0.03999999910593033,nan,nan,nan,1.0,2,0,3,True,4.182000160217285,4.182000160217285,4.182000160217285,4.182000160217285,4.182000160217285,4.182000160217285,id0,
1654044218.820294,186,1654044218,819822616,,25.104999542236328,0.0,-0.05999999865889549,nan,nan,nan,1.0,2,0,3,True,4.184000015258789,4.184000015258789,4.184000015258789,4.184000015258789,4.184000015258789,4.184000015258789,id0,
1654044220.820845,187,1654044220,820429485,,25.107999801635742,0.0,-0.07000000029802322,nan,nan,nan,1.0,2,0,3,True,4.184000015258789,4.184000015258789,4.184000015258789,4.184000015258789,4.184000015258789,4.184000015258789,id0,
1654044222.8204637,188,1654044222,820090780,,25.107999801635742,0.0,-0.07999999821186066,nan,nan,nan,1.0,2,0,3,True,4.184000015258789,4.184000015258789,4.184000015258789,4.184000015258789,4.184000015258789,4.184000015258789,id0,
1654044224.8200102,189,1654044224,819732557,,25.107999801635742,0.0,-0.05999999865889549,nan,nan,nan,1.0,2,0,3,True,4.184000015258789,4.184000015258789,4.184000015258789,4.184000015258789,4.184000015258789,4.184000015258789,id0,
1654044226.819695,190,1654044226,819422944,,25.106000900268555,0.0,-0.07000000029802322,nan,nan,nan,1.0,2,0,3,True,4.184000015258789,4.184000015258789,4.184000015258789,4.184000015258789,4.184000015258789,4.184000015258789,id0,
1654044228.8195717,191,1654044228,819160036,,25.110000610351562,0.0,-0.05000000074505806,nan,nan,nan,1.0,2,0,3,True,4.184999942779541,4.184999942779541,4.184999942779541,4.184999942779541,4.184999942779541,4.184999942779541,id0,
1654044230.8203318,192,1654044230,819877461,,25.11400032043457,0.0,-0.10000000149011612,nan,nan,nan,1.0,2,0,3,True,4.184999942779541,4.184999942779541,4.184999942779541,4.184999942779541,4.184999942779541,4.184999942779541,id0,
1654044232.8209443,193,1654044232,820516404,,25.113000869750977,0.0,-0.07000000029802322,nan,nan,nan,1.0,2,0,3,True,4.184999942779541,4.184999942779541,4.184999942779541,4.184999942779541,4.184999942779541,4.184999942779541,id0,
1654044234.8198297,194,1654044234,819400606,,25.111000061035156,0.0,-0.05999999865889549,nan,nan,nan,1.0,2,0,3,True,4.184999942779541,4.184999942779541,4.184999942779541,4.184999942779541,4.184999942779541,4.184999942779541,id0,
1654044245.4440362,195,1654044245,443605026,,25.10300064086914,0.0,-0.05999999865889549,nan,nan,nan,1.0,2,0,3,True,4.183000087738037,4.183000087738037,4.183000087738037,4.183000087738037,4.183000087738037,4.183000087738037,id0,
1654044247.4446087,196,1654044247,444155988,,25.104999542236328,0.0,-0.05000000074505806,nan,nan,nan,1.0,2,0,3,True,4.184000015258789,4.184000015258789,4.184000015258789,4.184000015258789,4.184000015258789,4.184000015258789,id0,
1654044249.4442542,197,1654044249,443912857,,25.101999282836914,0.0,-0.05000000074505806,nan,nan,nan,1.0,2,0,3,True,4.183000087738037,4.183000087738037,4.183000087738037,4.183000087738037,4.183000087738037,4.183000087738037,id0,
1654044251.4461088,198,1654044251,445536633,,25.10300064086914,0.0,-0.05999999865889549,nan,nan,nan,1.0,2,0,3,True,4.183000087738037,4.183000087738037,4.183000087738037,4.183000087738037,4.183000087738037,4.183000087738037,id0,
1654044253.4446254,199,1654044253,444234188,,25.106000900268555,0.0,-0.05000000074505806,nan,nan,nan,1.0,2,0,3,True,4.184000015258789,4.184000015258789,4.184000015258789,4.184000015258789,4.184000015258789,4.184000015258789,id0,
1654044255.444658,200,1654044255,444104205,,25.10300064086914,0.0,-0.05000000074505806,nan,nan,nan,1.0,2,0,3,True,4.183000087738037,4.183000087738037,4.183000087738037,4.183000087738037,4.183000087738037,4.183000087738037,id0,
1654044257.4448938,201,1654044257,444507111,,25.101999282836914,0.0,-0.05000000074505806,nan,nan,nan,1.0,2,0,3,True,4.183000087738037,4.183000087738037,4.183000087738037,4.183000087738037,4.183000087738037,4.183000087738037,id0,
1654044259.444566,202,1654044259,444186925,,25.104000091552734,0.0,-0.05000000074505806,nan,nan,nan,1.0,2,0,3,True,4.184000015258789,4.184000015258789,4.184000015258789,4.184000015258789,4.184000015258789,4.184000015258789,id0,
1654044261.444393,203,1654044261,444028405,,25.10700035095215,0.0,-0.05999999865889549,nan,nan,nan,1.0,2,0,3,True,4.184000015258789,4.184000015258789,4.184000015258789,4.184000015258789,4.184000015258789,4.184000015258789,id0,
1654044263.4459374,204,1654044263,445598367,,25.104999542236328,0.0,-0.029999999329447746,nan,nan,nan,1.0,2,0,3,True,4.184000015258789,4.184000015258789,4.184000015258789,4.184000015258789,4.184000015258789,4.184000015258789,id0,
1654044265.4449177,205,1654044265,444417440,,25.108999252319336,0.0,-0.07000000029802322,nan,nan,nan,1.0,2,0,3,True,4.184999942779541,4.184999942779541,4.184999942779541,4.184999942779541,4.184999942779541,4.184999942779541,id0,
1654044267.446331,206,1654044267,445956346,,25.110000610351562,0.0,-0.07000000029802322,nan,nan,nan,1.0,2,0,3,True,4.184000015258789,4.184000015258789,4.184000015258789,4.184000015258789,4.184000015258789,4.184000015258789,id0,
1654044269.4448507,207,1654044269,444566956,,25.107999801635742,0.0,-0.07000000029802322,nan,nan,nan,1.0,2,0,3,True,4.184000015258789,4.184000015258789,4.184000015258789,4.184000015258789,4.184000015258789,4.184000015258789,id0,
1654044271.44454,208,1654044271,444282714,,25.10700035095215,0.0,-0.03999999910593033,nan,nan,nan,1.0,2,0,3,True,4.184000015258789,4.184000015258789,4.184000015258789,4.184000015258789,4.184000015258789,4.184000015258789,id0,
1654044273.4462733,209,1654044273,445976602,,25.10700035095215,0.0,-0.05999999865889549,nan,nan,nan,1.0,2,0,3,True,4.184000015258789,4.184000015258789,4.184000015258789,4.184000015258789,4.184000015258789,4.184000015258789,id0,
1654044275.4452512,210,1654044275,444751934,,25.108999252319336,0.0,-0.03999999910593033,nan,nan,nan,1.0,2,0,3,True,4.184000015258789,4.184000015258789,4.184000015258789,4.184000015258789,4.184000015258789,4.184000015258789,id0,
1654044277.4446592,211,1654044277,444335155,,25.108999252319336,0.0,-0.07000000029802322,nan,nan,nan,1.0,2,0,3,True,4.184000015258789,4.184000015258789,4.184000015258789,4.184000015258789,4.184000015258789,4.184000015258789,id0,
1654044279.4453413,212,1654044279,445028617,,25.106000900268555,0.0,-0.03999999910593033,nan,nan,nan,1.0,2,0,3,True,4.184000015258789,4.184000015258789,4.184000015258789,4.184000015258789,4.184000015258789,4.184000015258789,id0,
1654044281.4449167,213,1654044281,444634079,,25.106000900268555,0.0,-0.05000000074505806,nan,nan,nan,1.0,2,0,3,True,4.184000015258789,4.184000015258789,4.184000015258789,4.184000015258789,4.184000015258789,4.184000015258789,id0,
1654044283.445737,214,1654044283,445467040,,25.10700035095215,0.0,-0.05000000074505806,nan,nan,nan,1.0,2,0,3,True,4.184000015258789,4.184000015258789,4.184000015258789,4.184000015258789,4.184000015258789,4.184000015258789,id0,
1654044285.44634,215,1654044285,446052484,,25.10700035095215,0.0,-0.05999999865889549,nan,nan,nan,1.0,2,0,3,True,4.184000015258789,4.184000015258789,4.184000015258789,4.184000015258789,4.184000015258789,4.184000015258789,id0,
1654044287.445404,216,1654044287,444807742,,25.107999801635742,0.0,-0.05000000074505806,nan,nan,nan,1.0,2,0,3,True,4.184000015258789,4.184000015258789,4.184000015258789,4.184000015258789,4.184000015258789,4.184000015258789,id0,
1654044289.4446893,217,1654044289,444434240,,25.107999801635742,0.0,-0.05000000074505806,nan,nan,nan,1.0,2,0,3,True,4.184000015258789,4.184000015258789,4.184000015258789,4.184000015258789,4.184000015258789,4.184000015258789,id0,
1654044291.4444013,218,1654044291,444125369,,25.108999252319336,0.0,-0.03999999910593033,nan,nan,nan,1.0,2,0,3,True,4.184000015258789,4.184000015258789,4.184000015258789,4.184000015258789,4.184000015258789,4.184000015258789,id0,
1654044293.4452212,219,1654044293,444760127,,25.110000610351562,0.0,-0.05999999865889549,nan,nan,nan,1.0,2,0,3,True,4.184999942779541,4.184999942779541,4.184999942779541,4.184999942779541,4.184999942779541,4.184999942779541,id0,
1654044295.4448738,220,1654044295,444487366,,25.040000915527344,0.0,-3.4600000381469727,nan,nan,nan,1.0,2,0,3,True,4.171999931335449,4.171999931335449,4.171999931335449,4.171999931335449,4.171999931335449,4.171999931335449,id0,
1654044297.4455898,221,1654044297,445190162,,25.016000747680664,0.0,-3.5199999809265137,nan,nan,nan,1.0,2,0,3,True,4.169000148773193,4.169000148773193,4.169000148773193,4.169000148773193,4.169000148773193,4.169000148773193,id0,
1654044299.4521787,222,1654044299,451816290,,25.01099967956543,0.0,-3.490000009536743,nan,nan,nan,1.0,2,0,3,True,4.168000221252441,4.168000221252441,4.168000221252441,4.168000221252441,4.168000221252441,4.168000221252441,id0,
1654044301.4509363,223,1654044301,450509141,,25.007999420166016,0.0,-3.5,nan,nan,nan,1.0,2,0,3,True,4.166999816894531,4.166999816894531,4.166999816894531,4.166999816894531,4.166999816894531,4.166999816894531,id0,
1654044303.4516482,224,1654044303,451183917,,24.764999389648438,0.0,-28.239999771118164,nan,nan,nan,1.0,2,0,3,True,4.109000205993652,4.109000205993652,4.109000205993652,4.109000205993652,4.109000205993652,4.109000205993652,id0,
1654044305.4442086,225,1654044305,443885786,,23.97599983215332,0.0,-53.939998626708984,nan,nan,nan,1.0,2,0,3,True,3.989000082015991,3.989000082015991,3.989000082015991,3.989000082015991,3.989000082015991,3.989000082015991,id0,
1654044307.446059,226,1654044307,445551785,,23.73900032043457,0.0,-57.310001373291016,nan,nan,nan,1.0,2,0,3,True,3.9539999961853027,3.9539999961853027,3.9539999961853027,3.9539999961853027,3.9539999961853027,3.9539999961853027,id0,
1654044309.450553,227,1654044309,450205636,,23.65399932861328,0.0,-58.02000045776367,nan,nan,nan,1.0,2,0,3,True,3.938999891281128,3.938999891281128,3.938999891281128,3.938999891281128,3.938999891281128,3.938999891281128,id0,
1654044311.4503727,228,1654044311,449967672,,23.604999542236328,0.0,-56.09000015258789,nan,nan,nan,0.9900000095367432,2,0,3,True,3.934000015258789,3.934000015258789,3.934000015258789,3.934000015258789,3.934000015258789,3.934000015258789,id0,
1654044313.444954,229,1654044313,444561282,,23.60300064086914,0.0,-54.5,nan,nan,nan,0.9900000095367432,2,0,3,True,3.934000015258789,3.934000015258789,3.934000015258789,3.934000015258789,3.934000015258789,3.934000015258789,id0,
1654044315.4447122,230,1654044315,444322817,,23.645999908447266,0.0,-49.75,nan,nan,nan,0.9900000095367432,2,0,3,True,3.943000078201294,3.943000078201294,3.943000078201294,3.943000078201294,3.943000078201294,3.943000078201294,id0,
1654044317.4514802,231,1654044317,450948501,,24.283000946044922,0.0,-5.71999979019165,nan,nan,nan,0.9900000095367432,2,0,3,True,4.059999942779541,4.059999942779541,4.059999942779541,4.059999942779541,4.059999942779541,4.059999942779541,id0,
1654044319.4511054,232,1654044319,450687630,,24.690000534057617,0.0,-0.12999999523162842,nan,nan,nan,0.9900000095367432,2,0,3,True,4.117000102996826,4.117000102996826,4.117000102996826,4.117000102996826,4.117000102996826,4.117000102996826,id0,
1654044321.4456468,233,1654044321,445283795,,24.780000686645508,0.0,-0.03999999910593033,nan,nan,nan,0.9900000095367432,2,0,3,True,4.130000114440918,4.130000114440918,4.130000114440918,4.130000114440918,4.130000114440918,4.130000114440918,id0,
1654044323.4445295,234,1654044323,443976887,,24.820999145507812,0.0,-0.029999999329447746,nan,nan,nan,0.9900000095367432,2,0,3,True,4.13700008392334,4.13700008392334,4.13700008392334,4.13700008392334,4.13700008392334,4.13700008392334,id0,
1654044325.4450424,235,1654044325,444651867,,24.844999313354492,0.0,-0.03999999910593033,nan,nan,nan,0.9900000095367432,2,0,3,True,4.140999794006348,4.140999794006348,4.140999794006348,4.140999794006348,4.140999794006348,4.140999794006348,id0,
1654044327.4450274,236,1654044327,444591144,,24.86400032043457,0.0,-0.03999999910593033,nan,nan,nan,0.9900000095367432,2,0,3,True,4.144000053405762,4.144000053405762,4.144000053405762,4.144000053405762,4.144000053405762,4.144000053405762,id0,
1654044329.4445984,237,1654044329,444190976,,24.8799991607666,0.0,-0.05000000074505806,nan,nan,nan,0.9900000095367432,2,0,3,True,4.146999835968018,4.146999835968018,4.146999835968018,4.146999835968018,4.146999835968018,4.146999835968018,id0,
1654044331.4510322,238,1654044331,450668530,,24.892000198364258,0.0,-0.03999999910593033,nan,nan,nan,0.9900000095367432,2,0,3,True,4.1479997634887695,4.1479997634887695,4.1479997634887695,4.1479997634887695,4.1479997634887695,4.1479997634887695,id0,
1654044333.4508061,239,1654044333,450415473,,24.902999877929688,0.0,-0.05000000074505806,nan,nan,nan,0.9900000095367432,2,0,3,True,4.150000095367432,4.150000095367432,4.150000095367432,4.150000095367432,4.150000095367432,4.150000095367432,id0,
1654044335.4446924,240,1654044335,444242065,,24.91200065612793,0.0,-0.05000000074505806,nan,nan,nan,0.9900000095367432,2,0,3,True,4.1519999504089355,4.1519999504089355,4.1519999504089355,4.1519999504089355,4.1519999504089355,4.1519999504089355,id0,
1654044337.4451542,241,1654044337,444704156,,24.922000885009766,0.0,-0.029999999329447746,nan,nan,nan,0.9900000095367432,2,0,3,True,4.1529998779296875,4.1529998779296875,4.1529998779296875,4.1529998779296875,4.1529998779296875,4.1529998779296875,id0,
1654044339.4508145,242,1654044339,450492822,,24.927000045776367,0.0,-0.03999999910593033,nan,nan,nan,0.9900000095367432,2,0,3,True,4.1539998054504395,4.1539998054504395,4.1539998054504395,4.1539998054504395,4.1539998054504395,4.1539998054504395,id0,
1654044341.4515266,243,1654044341,451077172,,24.933000564575195,0.0,-0.03999999910593033,nan,nan,nan,0.9900000095367432,2,0,3,True,4.15500020980835,4.15500020980835,4.15500020980835,4.15500020980835,4.15500020980835,4.15500020980835,id0,
1654044343.4461427,244,1654044343,445733893,,24.871999740600586,0.0,-3.4600000381469727,nan,nan,nan,0.9900000095367432,2,0,3,True,4.144000053405762,4.144000053405762,4.144000053405762,4.144000053405762,4.144000053405762,4.144000053405762,id0,
1654044345.444806,245,1654044345,444431337,,24.85700035095215,0.0,-3.4800000190734863,nan,nan,nan,0.9900000095367432,2,0,3,True,4.142000198364258,4.142000198364258,4.142000198364258,4.142000198364258,4.142000198364258,4.142000198364258,id0,
1654044347.444472,246,1654044347,444185002,,24.91699981689453,0.0,-0.17000000178813934,nan,nan,nan,0.9900000095367432,2,0,3,True,4.1529998779296875,4.1529998779296875,4.1529998779296875,4.1529998779296875,4.1529998779296875,4.1529998779296875,id0,
1654044349.445022,247,1654044349,444739779,,24.93899917602539,0.0,-0.03999999910593033,nan,nan,nan,0.9900000095367432,2,0,3,True,4.156000137329102,4.156000137329102,4.156000137329102,4.156000137329102,4.156000137329102,4.156000137329102,id0,
1654044351.4447865,248,1654044351,444457259,,24.94499969482422,0.0,-0.03999999910593033,nan,nan,nan,0.9900000095367432,2,0,3,True,4.1570000648498535,4.1570000648498535,4.1570000648498535,4.1570000648498535,4.1570000648498535,4.1570000648498535,id0,
1654044353.4458604,249,1654044353,445381036,,24.958999633789062,0.0,-0.019999999552965164,nan,nan,nan,0.9900000095367432,2,0,3,True,4.158999919891357,4.158999919891357,4.158999919891357,4.158999919891357,4.158999919891357,4.158999919891357,id0,
1654044355.445533,250,1654044355,445065312,,24.961999893188477,0.0,-0.05999999865889549,nan,nan,nan,0.9900000095367432,2,0,3,True,4.159999847412109,4.159999847412109,4.159999847412109,4.159999847412109,4.159999847412109,4.159999847412109,id0,
1654044357.4460382,251,1654044357,445561367,,24.968000411987305,0.0,-0.07000000029802322,nan,nan,nan,0.9800000190734863,2,0,3,True,4.160999774932861,4.160999774932861,4.160999774932861,4.160999774932861,4.160999774932861,4.160999774932861,id0,
1654044359.4505212,252,1654044359,450117717,,24.917999267578125,0.0,-3.430000066757202,nan,nan,nan,0.9800000190734863,2,0,3,True,4.1519999504089355,4.1519999504089355,4.1519999504089355,4.1519999504089355,4.1519999504089355,4.1519999504089355,id0,
1654044361.4501824,253,1654044361,449795327,,24.888999938964844,0.0,-3.450000047683716,nan,nan,nan,0.9800000190734863,2,0,3,True,4.1479997634887695,4.1479997634887695,4.1479997634887695,4.1479997634887695,4.1479997634887695,4.1479997634887695,id0,
1654044363.4469502,254,1654044363,446563807,,24.885000228881836,0.0,-3.4800000190734863,nan,nan,nan,0.9800000190734863,2,0,3,True,4.146999835968018,4.146999835968018,4.146999835968018,4.146999835968018,4.146999835968018,4.146999835968018,id0,
1654044365.4448407,255,1654044365,444365084,,24.881999969482422,0.0,-3.490000009536743,nan,nan,nan,0.9800000190734863,2,0,3,True,4.146999835968018,4.146999835968018,4.146999835968018,4.146999835968018,4.146999835968018,4.146999835968018,id0,
1654044367.4502282,256,1654044367,449827286,,24.134000778198242,0.0,-51.7599983215332,nan,nan,nan,0.9800000190734863,2,0,3,True,4.01200008392334,4.01200008392334,4.01200008392334,4.01200008392334,4.01200008392334,4.01200008392334,id0,
1654044369.4499266,257,1654044369,449500619,,23.73200035095215,0.0,-57.939998626708984,nan,nan,nan,0.9800000190734863,2,0,3,True,3.9519999027252197,3.9519999027252197,3.9519999027252197,3.9519999027252197,3.9519999027252197,3.9519999027252197,id0,
1654044371.4466374,258,1654044371,446295006,,23.586000442504883,0.0,-60.13999938964844,nan,nan,nan,0.9800000190734863,2,0,3,True,3.928999900817871,3.928999900817871,3.928999900817871,3.928999900817871,3.928999900817871,3.928999900817871,id0,
1654044373.4503596,259,1654044373,449946116,,23.490999221801758,0.0,-61.060001373291016,nan,nan,nan,0.9700000286102295,2,0,3,True,3.9140000343322754,3.9140000343322754,3.9140000343322754,3.9140000343322754,3.9140000343322754,3.9140000343322754,id0,
1654044375.445191,260,1654044375,444689837,,23.422000885009766,0.0,-62.97999954223633,nan,nan,nan,0.9700000286102295,2,0,3,True,3.9019999504089355,3.9019999504089355,3.9019999504089355,3.9019999504089355,3.9019999504089355,3.9019999504089355,id0,
1654044377.4464946,261,1654044377,446264058,,23.347999572753906,0.0,-63.68000030517578,nan,nan,nan,0.9700000286102295,2,0,3,True,3.8910000324249268,3.8910000324249268,3.8910000324249268,3.8910000324249268,3.8910000324249268,3.8910000324249268,id0,
